{
"type": "FeatureCollection",
"name": "evStations",
"features": [
{ "type": "Feature", "properties": { "fid": 1, "Name": "EV Charging @บางนา กม.21 (ข้างๆศูนย์รถนิสสัน)", "Address": "JQ2P+PV6, Sisa Chorakhe Yai, Bang Sao Thong District", "Latitude": 13.6017876, "Longitude": 100.7871439, "Google_Rating": 4.4, "Total_Reviews": 37, "Place_ID": "ChIJTQKXQ7pcHTER_bnjhr2Q2TE" }, "geometry": null },
{ "type": "Feature", "properties": { "fid": 2, "Name": "OneCharge Charging Station", "Address": "โรงแรมเมบิส 911 Tambon Phraeksa Mai, Mueang Samut Prakan District", "Latitude": 13.5490254, "Longitude": 100.6904447, "Google_Rating": 5.0, "Total_Reviews": 27, "Place_ID": "ChIJhSVJmwpZHTERr0euNvyACEw" }, "geometry": null },
{ "type": "Feature", "properties": { "fid": 3, "Name": "EV Station PluZ Charging Station", "Address": "88, 168 kingkao road, Racha Thewa, Bang Phli District", "Latitude": 13.6744436, "Longitude": 100.7224493, "Google_Rating": 4.8, "Total_Reviews": 18, "Place_ID": "ChIJA8AeXypnHTERRFiLiCydmE4" }, "geometry": null },
{ "type": "Feature", "properties": { "fid": 4, "Name": "Tesla Supercharger", "Address": "98, 1 Suvarnabhumi 3 Rd, Tambon Bang Chalong, Amphoe Bang Phli", "Latitude": 13.6367297, "Longitude": 100.7467425, "Google_Rating": 4.6, "Total_Reviews": 16, "Place_ID": "ChIJUTR59Z1dHTERP_18HSdcvFU" }, "geometry": null },
{ "type": "Feature", "properties": { "fid": 5, "Name": "Electric Vehicle Charging Station", "Address": "138 Soi Sukhumvit 64, Phra Khanong Tai, Phra Khanong", "Latitude": 13.6861856, "Longitude": 100.6015937, "Google_Rating": 4.0, "Total_Reviews": 15, "Place_ID": "ChIJ-5MX8fWf4jARdAz2htAdv8M" }, "geometry": null },
{ "type": "Feature", "properties": { "fid": 6, "Name": "Tesla Supercharger", "Address": "JMVJ+F7, 38 หมู่ 6 Bang Na-Trat Frontage Rd, Bang Kaeo, Bang Phli District", "Latitude": 13.6437338, "Longitude": 100.6811021, "Google_Rating": 4.5, "Total_Reviews": 15, "Place_ID": "ChIJmy9sUABfHTERKcjmiTTUWUs" }, "geometry": null },
{ "type": "Feature", "properties": { "fid": 7, "Name": "EA Anywhere Charging Station", "Address": "999 หมู่ที่ 1, Nong Prue, Bang Phli, Samut Prakan, Thailand, 10540 Bang Phli District", "Latitude": 13.7117936, "Longitude": 100.7708146, "Google_Rating": 4.6, "Total_Reviews": 14, "Place_ID": "ChIJtQvA5LxnHTERiKGLHv2I8s4" }, "geometry": null },
{ "type": "Feature", "properties": { "fid": 8, "Name": "EA Anywhere Charging Station", "Address": "PF3Q+6HC แขวงบุคคโล 397 ถนนเจริญนคร Thon Buri", "Latitude": 13.7030252, "Longitude": 100.4889391, "Google_Rating": 3.8, "Total_Reviews": 14, "Place_ID": "ChIJ24O9t4iY4jARo6FP4c1WpHI" }, "geometry": null },
{ "type": "Feature", "properties": { "fid": 9, "Name": "Tesla Supercharger", "Address": "79 Ratchadaphisek Rd, Chong Nonsi, Yan Nawa", "Latitude": 13.6979528, "Longitude": 100.537541, "Google_Rating": 4.1, "Total_Reviews": 14, "Place_ID": "ChIJK1alJVuf4jARPxJshk-Kpts" }, "geometry": null },
{ "type": "Feature", "properties": { "fid": 10, "Name": "EA Anywhere Charging Station", "Address": "MPX4+J29 โครงการ K Space, Sukhaphiban 2 Rd, Prawet", "Latitude": 13.6990295, "Longitude": 100.7051045, "Google_Rating": 4.0, "Total_Reviews": 9, "Place_ID": "ChIJPcfUibRhHTERTWAeYrIWCHA" }, "geometry": null },
{ "type": "Feature", "properties": { "fid": 11, "Name": "สถานีอัดประจุไฟฟ้า TPIPP สาขาโกดังธนาพรชัย", "Address": "45, Tambon Bang Yo, Phra Pradaeng District", "Latitude": 13.6661635, "Longitude": 100.5460916, "Google_Rating": 5.0, "Total_Reviews": 7, "Place_ID": "ChIJ22JkklWj4jARNG_AzLSym3Y" }, "geometry": null },
{ "type": "Feature", "properties": { "fid": 12, "Name": "ECO FLASH Charging Station", "Address": "1762 On Nut Rd, Suan Luang", "Latitude": 13.7109296, "Longitude": 100.6374781, "Google_Rating": 4.9, "Total_Reviews": 7, "Place_ID": "ChIJWaXTMQBhHTERRUJyAdfwt7E" }, "geometry": null },
{ "type": "Feature", "properties": { "fid": 13, "Name": "Evolt Charging Station", "Address": "86/6 Kluai Nam Thai Rd, Khwaeng Phra Khanong, Khet Khlong Toei", "Latitude": 13.7097847, "Longitude": 100.58579, "Google_Rating": 5.0, "Total_Reviews": 6, "Place_ID": "ChIJwSKnrKKf4jARyUYwTviVtgI" }, "geometry": null },
{ "type": "Feature", "properties": { "fid": 14, "Name": "SPARK EV Charging Station", "Address": "0114, 169, Bang Kaeo, Bang Phli District", "Latitude": 13.6533009, "Longitude": 100.6729717, "Google_Rating": 5.0, "Total_Reviews": 6, "Place_ID": "ChIJZ-hs-eRfHTERPy_mhvP1Vgc" }, "geometry": null },
{ "type": "Feature", "properties": { "fid": 15, "Name": "MEA EV Charging Station", "Address": "JGCR+7P3, Suk Sawat Rd, Tambon Bang Chak, Town Municipality", "Latitude": 13.6206366, "Longitude": 100.5417958, "Google_Rating": 4.5, "Total_Reviews": 6, "Place_ID": "ChIJc_-cEGih4jARGpJwa4yMc-w" }, "geometry": null },
{ "type": "Feature", "properties": { "fid": 16, "Name": "PTT Charging Station", "Address": "82 Soi Muban Park Lane, Phra Khanong Tai, Phra Khanong", "Latitude": 13.6865431, "Longitude": 100.6031232, "Google_Rating": 3.4, "Total_Reviews": 5, "Place_ID": "ChIJi-ltBvaf4jARv-Gh9m2rXVs" }, "geometry": null },
{ "type": "Feature", "properties": { "fid": 17, "Name": "MEA Charging Station", "Address": "1557, 1 Charoen Nakhon Rd, Bang Lamphu Lang, Khlong San", "Latitude": 13.7115559, "Longitude": 100.5005585, "Google_Rating": 2.8, "Total_Reviews": 5, "Place_ID": "ChIJodDPaZOY4jARFxIZRt_QxIQ" }, "geometry": null },
{ "type": "Feature", "properties": { "fid": 18, "Name": "OneCharge Charging Station", "Address": "King Kaew 40, Tambon Rachathewa, Bang Phli District", "Latitude": 13.6746494, "Longitude": 100.7233219, "Google_Rating": 4.8, "Total_Reviews": 5, "Place_ID": "ChIJp-rXTiBdHTERLgJesdGlpoM" }, "geometry": null },
{ "type": "Feature", "properties": { "fid": 19, "Name": "EASTERN Charging Station", "Address": "502 Maria Soi 6, Thap Yao, Lat Krabang", "Latitude": 13.7121906, "Longitude": 100.8277139, "Google_Rating": 4.6, "Total_Reviews": 5, "Place_ID": "ChIJU16bZV5pHTERwIVhCYcl0aA" }, "geometry": null },
{ "type": "Feature", "properties": { "fid": 20, "Name": "EA Anywhere Charging Station", "Address": "MJ9G+GMF, Khwaeng Bang Na, Bang Na", "Latitude": 13.6688121, "Longitude": 100.6266671, "Google_Rating": 4.6, "Total_Reviews": 5, "Place_ID": "ChIJU5IgvqlfHTERQOMMpAnkumM" }, "geometry": null },
{ "type": "Feature", "properties": { "fid": 21, "Name": "MG Super Charge Charging Station", "Address": "1640 On Nut Rd, Khwaeng Suan Luang, Suan Luang", "Latitude": 13.710548, "Longitude": 100.6346458, "Google_Rating": 2.8, "Total_Reviews": 4, "Place_ID": "ChIJI09ADTVhHTERfBeyQGCrWo8" }, "geometry": null },
{ "type": "Feature", "properties": { "fid": 22, "Name": "สถานีชาร์จ EA Anywhere", "Address": "MM82+336, Bang Na Nuea, Bang Na", "Latitude": 13.6651644, "Longitude": 100.6501548, "Google_Rating": 1.0, "Total_Reviews": 4, "Place_ID": "ChIJedoGTI9fHTERVdcWum5pLnA" }, "geometry": null },
{ "type": "Feature", "properties": { "fid": 23, "Name": "EA Anywhere Charging Station", "Address": "MJCP+9CX Bizzo Bang Na", "Latitude": 13.6709961, "Longitude": 100.6360617, "Google_Rating": 3.5, "Total_Reviews": 4, "Place_ID": "ChIJKUOiMe9fHTERwr5GTJ88-Nk" }, "geometry": null },
{ "type": "Feature", "properties": { "fid": 24, "Name": "Electric Vehicle Charging Station", "Address": "MP58+FF6, Racha Thewa, Bang Phli District", "Latitude": 13.6584133, "Longitude": 100.7161492, "Google_Rating": 5.0, "Total_Reviews": 4, "Place_ID": "ChIJHVnO-j9dHTERBLE-kNAZ1j8" }, "geometry": null },
{ "type": "Feature", "properties": { "fid": 25, "Name": "MEA Charging Station", "Address": "เลขที่ 21 Rat Burana Rd, Khwaeng Rat Burana, Rat Burana", "Latitude": 13.6787392, "Longitude": 100.5126206, "Google_Rating": 4.0, "Total_Reviews": 4, "Place_ID": "ChIJt5e8_Q2i4jARR4FJIo5QxvE" }, "geometry": null },
{ "type": "Feature", "properties": { "fid": 26, "Name": "Altervim Charging Station", "Address": "Altervim Super Charge สาขา โลตัส บางนา-ตราด เลขที่ 14/9 หมู่ หมู่ที่ 13, 14/9 หมู่ หมู่ที่ 13 Bang Na-Trat Frontage Rd, Bang Kaeo, Bang Phli District", "Latitude": 13.6527826, "Longitude": 100.678137, "Google_Rating": 4.0, "Total_Reviews": 4, "Place_ID": "ChIJGV1wUwBfHTER3V4nXwHbqAc" }, "geometry": null },
{ "type": "Feature", "properties": { "fid": 27, "Name": "PTT Charging Station", "Address": "MHGW+G24 PTT Station สาขา Naphalai 12 Alley, Bang Na Nuea, Bang Na", "Latitude": 13.676269, "Longitude": 100.5950839, "Google_Rating": 3.0, "Total_Reviews": 4, "Place_ID": "ChIJnRt82iKg4jARhw3RrG2WLBU" }, "geometry": null },
{ "type": "Feature", "properties": { "fid": 28, "Name": "Sharge Charging Station", "Address": "2062 Soi Sukhumvit 62, Phra Khanong Tai, Khet Phra Khanong", "Latitude": 13.6953537, "Longitude": 100.6058343, "Google_Rating": 5.0, "Total_Reviews": 4, "Place_ID": "ChIJ068cS_Cf4jARsjqJC9upWyk" }, "geometry": null },
{ "type": "Feature", "properties": { "fid": 29, "Name": "EA Anywhere Charging Station", "Address": "MRVH+GJ5 Siam Premium Outlets Bang Sao Thong, Amphoe Bang Sao Thong", "Latitude": 13.6937131, "Longitude": 100.829064, "Google_Rating": 1.5, "Total_Reviews": 4, "Place_ID": "ChIJ8b3VXTloHTERG83x7upmRFc" }, "geometry": null },
{ "type": "Feature", "properties": { "fid": 30, "Name": "PTT Charging Station", "Address": "HVM4+X9Q, Bang Bo, Bang Bo District", "Latitude": 13.5847709, "Longitude": 100.8557503, "Google_Rating": 5.0, "Total_Reviews": 4, "Place_ID": "ChIJQx5TXQBDHTERWcYaxvGbYug" }, "geometry": null },
{ "type": "Feature", "properties": { "fid": 31, "Name": "MG Super Charge Charging Station", "Address": "557 Bang Bo, Subdistrict", "Latitude": 13.5868653, "Longitude": 100.8402588, "Google_Rating": 5.0, "Total_Reviews": 4, "Place_ID": "ChIJPxlUYX5DHTERpQf2YdZRjrs" }, "geometry": null },
{ "type": "Feature", "properties": { "fid": 32, "Name": "PTT Charging Station", "Address": "MFHW+WJ4 ขาออก หมูหม้อเทพ ปตท, Suk Sawat Rd, Bang Pakok, Khet Rat Burana", "Latitude": 13.6797619, "Longitude": 100.49657, "Google_Rating": 5.0, "Total_Reviews": 3, "Place_ID": "ChIJ1RqkxR2j4jARsCml804I41o" }, "geometry": null },
{ "type": "Feature", "properties": { "fid": 33, "Name": "EA Anywhere Charging Station", "Address": "62 32 Moo 1 Ratchapruek Rd Tambon Bang Phli Yai, Samut Prakan", "Latitude": 13.6278685, "Longitude": 100.7186146, "Google_Rating": 1.0, "Total_Reviews": 3, "Place_ID": "ChIJSzyUfC5cHTERQ9RNV9hB_3U" }, "geometry": null },
{ "type": "Feature", "properties": { "fid": 34, "Name": "EA Anywhere Charging Station", "Address": "PJ65+Q7P People Park Khwaeng Suan Luang, Khet Suan Luang", "Latitude": 13.711974, "Longitude": 100.6082122, "Google_Rating": 1.0, "Total_Reviews": 3, "Place_ID": "ChIJ_xOdLcOf4jARrTcGaq-lZYA" }, "geometry": null },
{ "type": "Feature", "properties": { "fid": 35, "Name": "Elex by EGAT Charging Station", "Address": "หมู่ที่ 12, King Kaeo Rd, Racha Thewa, Bang Phli District", "Latitude": 13.659133, "Longitude": 100.7167302, "Google_Rating": 4.0, "Total_Reviews": 3, "Place_ID": "ChIJm-b2QgBdHTERoJbvpnvqeOU" }, "geometry": null },
{ "type": "Feature", "properties": { "fid": 36, "Name": "PTT Charging Station", "Address": "236 Village No.12 Tambon Rachathewa, Bang Phli District", "Latitude": 13.658476, "Longitude": 100.7169938, "Google_Rating": 4.7, "Total_Reviews": 3, "Place_ID": "ChIJESYgZ-ddHTERscOgYmPYh4Q" }, "geometry": null },
{ "type": "Feature", "properties": { "fid": 37, "Name": "EVolt Charging Station", "Address": "485 ซอย บางนา-ตราด 42 Bang Na Nuea, Khet Bang Na", "Latitude": 13.6686028, "Longitude": 100.632725, "Google_Rating": 2.3, "Total_Reviews": 3, "Place_ID": "ChIJ3YOHae5fHTERuR0gO8VMg0Q" }, "geometry": null },
{ "type": "Feature", "properties": { "fid": 38, "Name": "MEA EV Charging Station", "Address": "3027 1 ถ. เจริญกรุง Khwaeng Bang Kho Laem, Khet Bang Kho Laem", "Latitude": 13.6930861, "Longitude": 100.4930541, "Google_Rating": 3.7, "Total_Reviews": 3, "Place_ID": "ChIJkdz3VYKY4jARZNkS0cw3fao" }, "geometry": null },
{ "type": "Feature", "properties": { "fid": 39, "Name": "สถานีชาร์จ Shell Recharge", "Address": "PR76+W67, Luang Phaeng Rd, Khwaeng Thap Yao, Lat Krabang", "Latitude": 13.7147751, "Longitude": 100.8105342, "Google_Rating": 5.0, "Total_Reviews": 3, "Place_ID": "ChIJH0iQOntoHTERi_iOPuWW6HE" }, "geometry": null },
{ "type": "Feature", "properties": { "fid": 40, "Name": "Electric Vehicle Charging Station", "Address": "HQHP+64R, Bang Sao Thong, Bang Sao Thong District", "Latitude": 13.5779903, "Longitude": 100.7855029, "Google_Rating": 4.3, "Total_Reviews": 3, "Place_ID": "ChIJZ7e7CwBbHTERSWDk48-RlDM" }, "geometry": null },
{ "type": "Feature", "properties": { "fid": 41, "Name": "PTT Charging Station", "Address": "20 38 Village No.7 Tambon Bang Chalong, Bang Phli District", "Latitude": 13.6174458, "Longitude": 100.7475079, "Google_Rating": 5.0, "Total_Reviews": 3, "Place_ID": "ChIJ_T7xi1tcHTERtwE_5TWWKRA" }, "geometry": null },
{ "type": "Feature", "properties": { "fid": 42, "Name": "EA Anywhere Charging Station", "Address": "4332 Rama IV Road,Phra Khanong, Klongtoey พระโขนง Khlong Toei", "Latitude": 13.712442, "Longitude": 100.5894148, "Google_Rating": 5.0, "Total_Reviews": 3, "Place_ID": "ChIJ8U0J2byf4jARYHI3jNflzOw" }, "geometry": null },
{ "type": "Feature", "properties": { "fid": 43, "Name": "EA Anywhere Charging Station", "Address": "HRP2+W5J, ถนน ทางหลวงชนบท, Tambon Bang Sao Thong, สมุทรปราการ", "Latitude": 13.5873333, "Longitude": 100.8003984, "Google_Rating": 5.0, "Total_Reviews": 3, "Place_ID": "ChIJYdj6SVVDHTERpqsN4sEAVM4" }, "geometry": null },
{ "type": "Feature", "properties": { "fid": 44, "Name": "ToCharge Charging Station", "Address": "Near, 154 Soi Amon, Chong Nonsi, Yan Nawa", "Latitude": 13.7113845, "Longitude": 100.549651, "Google_Rating": 4.7, "Total_Reviews": 3, "Place_ID": "ChIJJTx0lESf4jAR0HcomjVA0D0" }, "geometry": null },
{ "type": "Feature", "properties": { "fid": 45, "Name": "ReverSharger Charging Station", "Address": "MM2G+QW3 Esso Bang Kaeo Subdistrict", "Latitude": 13.6518781, "Longitude": 100.6772991, "Google_Rating": 4.7, "Total_Reviews": 3, "Place_ID": "ChIJTfwMo0VeHTERhTTj13XDC98" }, "geometry": null },
{ "type": "Feature", "properties": { "fid": 46, "Name": "EA Anywhere Charging Station", "Address": "PG98+4PX Rhythm Khwaeng Yan Nawa, Sathon", "Latitude": 13.7178508, "Longitude": 100.5168562, "Google_Rating": 4.7, "Total_Reviews": 3, "Place_ID": "ChIJ36GNdMaY4jARcEnR2IV4Jj4" }, "geometry": null },
{ "type": "Feature", "properties": { "fid": 47, "Name": "EA Anywhere Charging Station", "Address": "341, Nong Bon, Prawet", "Latitude": 13.6945749, "Longitude": 100.6723897, "Google_Rating": 4.3, "Total_Reviews": 3, "Place_ID": "ChIJKxg0BVlhHTERnS18wQDiI9Y" }, "geometry": null },
{ "type": "Feature", "properties": { "fid": 48, "Name": "Altervim Company Limited", "Address": "Floor 10, True Digital Park West, 111, unit 1004-1006 Sukhumvit Rd, Bang Chak, Phra Khanong", "Latitude": 13.686468, "Longitude": 100.6112583, "Google_Rating": 5.0, "Total_Reviews": 2, "Place_ID": "ChIJu9GpqBSf4jARYEq983KQ7DI" }, "geometry": null },
{ "type": "Feature", "properties": { "fid": 49, "Name": "EA Anywhere Charging Station", "Address": "PF52+R46 เมโทร พาร์ค สาทร Khwaeng Bang Wa, Khet Phasi Charoen", "Latitude": 13.7095439, "Longitude": 100.4502722, "Google_Rating": 3.0, "Total_Reviews": 2, "Place_ID": "ChIJqX66_hmY4jARWqAdSZzso-Q" }, "geometry": null },
{ "type": "Feature", "properties": { "fid": 50, "Name": "EA Anywhere Charging Station", "Address": "1 1 Narathiwatrachanakarin Rd Khwaeng Thung Wat Don, Khet Sathon", "Latitude": 13.7097748, "Longitude": 100.5353694, "Google_Rating": 4.0, "Total_Reviews": 2, "Place_ID": "ChIJpfmFiUmf4jAR0oy_ovFFRw0" }, "geometry": null },
{ "type": "Feature", "properties": { "fid": 51, "Name": "EA Anywhere Charging Station", "Address": "55 Srinagarindra Rd, Nong Bon, Prawet", "Latitude": 13.6928494, "Longitude": 100.6474982, "Google_Rating": 5.0, "Total_Reviews": 2, "Place_ID": "ChIJcVIb4j9hHTERDbCpALN8wLo" }, "geometry": null },
{ "type": "Feature", "properties": { "fid": 52, "Name": "EleXA Charging Station", "Address": "MGP9+QJC Homepro Rama III Rd, Khwaeng Bang Khlo, Khet Bang Kho Laem", "Latitude": 13.6869273, "Longitude": 100.5190123, "Google_Rating": 3.5, "Total_Reviews": 2, "Place_ID": "ChIJG-j30Qei4jARVYq0wNC9fJ0" }, "geometry": null },
{ "type": "Feature", "properties": { "fid": 53, "Name": "ReverSharger Charging Station", "Address": "455 455 2 Rama III Rd, Bang Khlo, Bang Kho Laem", "Latitude": 13.6897873, "Longitude": 100.5108964, "Google_Rating": 5.0, "Total_Reviews": 2, "Place_ID": "ChIJA7MVnqCY4jARJ_ZNlVOTXuY" }, "geometry": null },
{ "type": "Feature", "properties": { "fid": 54, "Name": "EVolt Charging Station", "Address": "3079/23 Piyabutr 1 Alley, Khwaeng Bang Chak, Khet Phra Khanong", "Latitude": 13.685942, "Longitude": 100.6111, "Google_Rating": 5.0, "Total_Reviews": 2, "Place_ID": "ChIJy9Rrfvif4jARhJRvRyum6WE" }, "geometry": null },
{ "type": "Feature", "properties": { "fid": 55, "Name": "EA Anywhere Charging Station", "Address": "1680 Thepharak Rd, Thepharak, Mueang Samut Prakan District", "Latitude": 13.6204209, "Longitude": 100.6437286, "Google_Rating": 3.0, "Total_Reviews": 2, "Place_ID": "ChIJ1-ylhytfHTERNnGhw7G4JO0" }, "geometry": null },
{ "type": "Feature", "properties": { "fid": 56, "Name": "EleXA Charging Station", "Address": "288/9 หมู่ 3 ซ. ไปรษณีย์เก่า ต.บางพลีใหญ่ อำเภอบางพลี Bang Phli Yai Subdistrict", "Latitude": 13.6148949, "Longitude": 100.6810701, "Google_Rating": 5.0, "Total_Reviews": 2, "Place_ID": "ChIJe9ym8eleHTERwfAHETjbbNo" }, "geometry": null },
{ "type": "Feature", "properties": { "fid": 57, "Name": "EA Anywhere Charging Station", "Address": "JQF4+FXH ซอย ลาดกระบัง 46 Tambon Bang Chalong, สมุทรปราการ", "Latitude": 13.6236864, "Longitude": 100.7574953, "Google_Rating": 2.5, "Total_Reviews": 2, "Place_ID": "ChIJp62jS_hcHTERkTyFdeQIxOs" }, "geometry": null },
{ "type": "Feature", "properties": { "fid": 58, "Name": "EA Anywhere Charging Station", "Address": "JQ3G+QR3 CALTEX Bangna-Trad Road Tambon Bang Chalong, สมุทรปราการ", "Latitude": 13.6043897, "Longitude": 100.7770381, "Google_Rating": 3.5, "Total_Reviews": 2, "Place_ID": "ChIJsdpW-5VcHTER9F0rL5O45x4" }, "geometry": null },
{ "type": "Feature", "properties": { "fid": 59, "Name": "Virta Charging Station", "Address": "664849, 13.653129,100, Bang Kaeo", "Latitude": 13.6530566, "Longitude": 100.6649191, "Google_Rating": 5.0, "Total_Reviews": 2, "Place_ID": "ChIJgZGPykxeHTERjIKYmNIoLHE" }, "geometry": null },
{ "type": "Feature", "properties": { "fid": 60, "Name": "EA Anywhere Charging Station", "Address": "296 1 Old Sukhumvit Rd Tambon Thai Ban Mai, Mueang Samut Prakan District", "Latitude": 13.5393959, "Longitude": 100.6228622, "Google_Rating": 4.5, "Total_Reviews": 2, "Place_ID": "ChIJ1Wm_qXlYHTERNxxxKkzGkFI" }, "geometry": null },
{ "type": "Feature", "properties": { "fid": 61, "Name": "Sharge Charging Station", "Address": "81 ถ. สุขุมวิท Khwaeng Phra Khanong Nuea, Watthana", "Latitude": 13.7151115, "Longitude": 100.6013624, "Google_Rating": 3.0, "Total_Reviews": 2, "Place_ID": "ChIJp73jt8af4jARYECla1zIi0c" }, "geometry": null },
{ "type": "Feature", "properties": { "fid": 62, "Name": "Altervim Charging Station", "Address": "Altervim Super Charge สาขา 7-Eleven แยกเมืองสมุทร 333/9 Thetsaban 12, Pak Nam, Mueang Samut Prakan District", "Latitude": 13.5980904, "Longitude": 100.6017295, "Google_Rating": 5.0, "Total_Reviews": 2, "Place_ID": "ChIJb97YrgOh4jARm6zKBHo9XUo" }, "geometry": null },
{ "type": "Feature", "properties": { "fid": 63, "Name": "OneCharge Charging Station", "Address": "999 Sukhumvit Rd, Pak Nam, City", "Latitude": 13.5814114, "Longitude": 100.6058135, "Google_Rating": 5.0, "Total_Reviews": 2, "Place_ID": "ChIJecJCoEmn4jARKF-DXVRHOD0" }, "geometry": null },
{ "type": "Feature", "properties": { "fid": 64, "Name": "EA Anywhere Charging Station", "Address": "HMX5+Q79 ซี พี เอ็น ออยล์, Tambon Phraeksa Mai, สมุทรปราการ", "Latitude": 13.5994106, "Longitude": 100.6582411, "Google_Rating": 5.0, "Total_Reviews": 2, "Place_ID": "ChIJi-T-xi5fHTEROgB1GaVU7d4" }, "geometry": null },
{ "type": "Feature", "properties": { "fid": 65, "Name": "MG Super Charge Charging Station", "Address": "Debaratna Road Sisa Chorakhe Yai Subdistrict", "Latitude": 13.5984345, "Longitude": 100.7925216, "Google_Rating": 4.5, "Total_Reviews": 2, "Place_ID": "ChIJEQWVyLFcHTERvlx0yxDqxiw" }, "geometry": null },
{ "type": "Feature", "properties": { "fid": 66, "Name": "EA Anywhere Charging Station", "Address": "SUSCO สาขา Thap Yao Alley, Khwaeng Thap Yao, Khet Lat Krabang", "Latitude": 13.7140156, "Longitude": 100.8131638, "Google_Rating": 3.0, "Total_Reviews": 2, "Place_ID": "ChIJ5_WgHWVoHTERwop1HNVQVUc" }, "geometry": null },
{ "type": "Feature", "properties": { "fid": 67, "Name": "Gentari Charging Station", "Address": "สถานีอัดประจุไฟฟ้า ศรีษะ, Sisa Chorakhe Noi, Bang Sao Thong District", "Latitude": 13.7097021, "Longitude": 100.784272, "Google_Rating": 5.0, "Total_Reviews": 2, "Place_ID": "ChIJQdYcZgRnHTERPgaiTDGzQDg" }, "geometry": null },
{ "type": "Feature", "properties": { "fid": 68, "Name": "EVolt Charging Station", "Address": "39 หมู่ 6 Debaratna Road, Bang Kaeo, Amphoe Bang Phli", "Latitude": 13.646026, "Longitude": 100.678559, "Google_Rating": 5.0, "Total_Reviews": 2, "Place_ID": "ChIJtTRJ-1peHTERc6ifCgMaXkE" }, "geometry": null },
{ "type": "Feature", "properties": { "fid": 69, "Name": "PTT Charging Station", "Address": "MGW7+V9R, Charoen Rat Rd, Khwaeng Bang Khlo, Khet Bang Kho Laem", "Latitude": 13.6972499, "Longitude": 100.513378, "Google_Rating": 3.5, "Total_Reviews": 2, "Place_ID": "ChIJb-7EcaSY4jARJZRny3Gmkvg" }, "geometry": null },
{ "type": "Feature", "properties": { "fid": 70, "Name": "Altervim Charging Station", "Address": "Altervim Super Charge สาขา 7-Eleven 489/1 Rama II Soi 23, Bang Mot, Chom Thong", "Latitude": 13.6807328, "Longitude": 100.47463, "Google_Rating": 3.5, "Total_Reviews": 2, "Place_ID": "ChIJb7ZziT2j4jARzQdyq1scL9w" }, "geometry": null },
{ "type": "Feature", "properties": { "fid": 71, "Name": "EA Anywhere Charging Station", "Address": "126 Rat Burana", "Latitude": 13.6780331, "Longitude": 100.5113984, "Google_Rating": 1.0, "Total_Reviews": 2, "Place_ID": "ChIJX_hDCxKi4jARZ5GwxLUZLHo" }, "geometry": null },
{ "type": "Feature", "properties": { "fid": 72, "Name": "EA Anywhere Charging Station", "Address": "308 Udom Suk Rd, บางนา Bang Na", "Latitude": 13.6783817, "Longitude": 100.620172, "Google_Rating": 5.0, "Total_Reviews": 2, "Place_ID": "ChIJhaFjpPhfHTERDQQULjZn5Qc" }, "geometry": null },
{ "type": "Feature", "properties": { "fid": 73, "Name": "PTT Charging Station", "Address": "627 ซอย ลาซาล Bang Na Tai, Bang Na", "Latitude": 13.6622461, "Longitude": 100.6204592, "Google_Rating": 5.0, "Total_Reviews": 2, "Place_ID": "ChIJMbg8Ha5fHTERUtuB2RhBlV8" }, "geometry": null },
{ "type": "Feature", "properties": { "fid": 74, "Name": "EVolt Charging Station", "Address": "984 พระรามที่ 3 ซอย 42 Khwaeng Bang Phong Phang, Khet Yan Nawa", "Latitude": 13.675415, "Longitude": 100.545035, "Google_Rating": 4.5, "Total_Reviews": 2, "Place_ID": "ChIJG1pFFe-h4jAR_On1qYPscv8" }, "geometry": null },
{ "type": "Feature", "properties": { "fid": 75, "Name": "MEA Charging Station", "Address": "556 Sanphawut Rd, Bang Na Nuea, Bang Na", "Latitude": 13.6761894, "Longitude": 100.5917267, "Google_Rating": 5.0, "Total_Reviews": 2, "Place_ID": "ChIJlTZxoCSg4jARNk7IwCTQT1c" }, "geometry": null },
{ "type": "Feature", "properties": { "fid": 76, "Name": "Virta Charging Station", "Address": "2556 Sukhumvit Rd, Bang Na Nuea, Khet Bang Na", "Latitude": 13.681871, "Longitude": 100.610011, "Google_Rating": 4.0, "Total_Reviews": 2, "Place_ID": "ChIJlyBzFwOg4jAR_gszsmScecc" }, "geometry": null },
{ "type": "Feature", "properties": { "fid": 77, "Name": "EA ANYWHERE Charging Station", "Address": "JMVW+2HH, Bang Phli Yai, Bang Phli District", "Latitude": 13.6425532, "Longitude": 100.6964809, "Google_Rating": 2.5, "Total_Reviews": 2, "Place_ID": "ChIJbzCQktVfHTERG89z9ouqDO8" }, "geometry": null },
{ "type": "Feature", "properties": { "fid": 78, "Name": "MEA Charging Station", "Address": "70 1 ถ.กิ่งแก้ว กรุงเทพมหานคร, Racha Thewa, Bang Phli District", "Latitude": 13.6416798, "Longitude": 100.7131407, "Google_Rating": 4.5, "Total_Reviews": 2, "Place_ID": "ChIJI372g9ZdHTERAdwUXJMpTZE" }, "geometry": null },
{ "type": "Feature", "properties": { "fid": 79, "Name": "ReverSharger Charging Station", "Address": "11 Sukhumvit Rd, Phra Khanong Nuea, Watthana", "Latitude": 13.712816, "Longitude": 100.6002516, "Google_Rating": 4.0, "Total_Reviews": 1, "Place_ID": "ChIJg7uWH8Gf4jARFJM9cn0XSeg" }, "geometry": null },
{ "type": "Feature", "properties": { "fid": 80, "Name": "Sharge Charging Station", "Address": "95 ซอย ริมคลองสามเสน Khwaeng Phra Khanong Nuea, Watthana", "Latitude": 13.7147059, "Longitude": 100.6050479, "Google_Rating": 5.0, "Total_Reviews": 1, "Place_ID": "ChIJMd_kcMSf4jARav72WTuE_zE" }, "geometry": null },
{ "type": "Feature", "properties": { "fid": 81, "Name": "ReverSharger Charging Station", "Address": "55 Sukhumvit 77 rd", "Latitude": 13.7153474, "Longitude": 100.6030301, "Google_Rating": 5.0, "Total_Reviews": 1, "Place_ID": "ChIJ0eNpHMSf4jARYM8yfiNVVLk" }, "geometry": null },
{ "type": "Feature", "properties": { "fid": 82, "Name": "EA Anywhere Charging Station", "Address": "PJ52+XMF Big C Extra On Nut, On Nut Rd, Khwaeng Phra Khanong Nuea, Watthana", "Latitude": 13.709948, "Longitude": 100.6016677, "Google_Rating": 3.0, "Total_Reviews": 1, "Place_ID": "ChIJRzaF68Gf4jARohuhSxXfIoI" }, "geometry": null },
{ "type": "Feature", "properties": { "fid": 83, "Name": "EA Anywhere Charging Station", "Address": "45, 19 ถ. สุขุมวิท Khwaeng Phra Khanong Nuea, Watthana", "Latitude": 13.7133137, "Longitude": 100.6008283, "Google_Rating": 1.0, "Total_Reviews": 1, "Place_ID": "ChIJ8Y_AF8Gf4jARXQbOtuKxE5M" }, "geometry": null },
{ "type": "Feature", "properties": { "fid": 84, "Name": "Shell Recharge Charging Station", "Address": "447, T, Samrongnuer A.Mueang, Amphoe Mueang Samut Prakan", "Latitude": 13.649135, "Longitude": 100.640076, "Google_Rating": 5.0, "Total_Reviews": 1, "Place_ID": "ChIJl2e-OphfHTERY3mxwjjoYyQ" }, "geometry": null },
{ "type": "Feature", "properties": { "fid": 85, "Name": "PTT Charging Station", "Address": "299 9 Srinagarindra Rd, Tambon Bang Muang Mai, Mueang Samut Prakan District", "Latitude": 13.6151846, "Longitude": 100.6221251, "Google_Rating": 1.0, "Total_Reviews": 1, "Place_ID": "ChIJQ9_ww19fHTERGO76j7Czyqo" }, "geometry": null },
{ "type": "Feature", "properties": { "fid": 86, "Name": "Evolt Charging Station", "Address": "17/2 ซ. ขจรวิทย์ Phraeksa, Amphoe Mueang Samut Prakan", "Latitude": 13.5879939, "Longitude": 100.6702787, "Google_Rating": 5.0, "Total_Reviews": 1, "Place_ID": "ChIJr3wJiCtZHTERiUVb0fJ3ru8" }, "geometry": null },
{ "type": "Feature", "properties": { "fid": 87, "Name": "Altervim Charging Station", "Address": "กม.14.5 Altervim Super Charge สาขา 7-Eleven 199/56 หมู่ 11 Thepharak Rd, Tambon Bang Phli Yai, Bang Phli District", "Latitude": 13.599607, "Longitude": 100.7189746, "Google_Rating": 5.0, "Total_Reviews": 1, "Place_ID": "ChIJw8XEfsldHTERsER7O2duANU" }, "geometry": null },
{ "type": "Feature", "properties": { "fid": 88, "Name": "EleXA Charging Station", "Address": "61 Srinagarindra Rd, Khwaeng Nong Bon, Khet Prawet", "Latitude": 13.6876507, "Longitude": 100.6476396, "Google_Rating": 3.0, "Total_Reviews": 1, "Place_ID": "ChIJE6eqJ3RgHTERxpf0oI6wwWI" }, "geometry": null },
{ "type": "Feature", "properties": { "fid": 89, "Name": "สถานีชาร์จ Evolt", "Address": "JMVF+7WH unknown Bang Kaeo, Amphoe Bang Phli", "Latitude": 13.6431952, "Longitude": 100.674846, "Google_Rating": 2.0, "Total_Reviews": 1, "Place_ID": "ChIJb20AplBeHTER04QIDjTtpOs" }, "geometry": null },
{ "type": "Feature", "properties": { "fid": 90, "Name": "สถานีชาร์จ Charge+", "Address": "55 Sanam Golf Alley, Khwaeng Nong Bon, Khet Prawet", "Latitude": 13.691564, "Longitude": 100.647647, "Google_Rating": 5.0, "Total_Reviews": 1, "Place_ID": "ChIJuYb-2HNgHTER4VbfhDZB8bA" }, "geometry": null },
{ "type": "Feature", "properties": { "fid": 91, "Name": "EGAT Charging Station", "Address": "HQG6+87Q, Bang Pla, Amphoe Bang Phli", "Latitude": 13.5758404, "Longitude": 100.7607115, "Google_Rating": 5.0, "Total_Reviews": 1, "Place_ID": "ChIJQUG6RHpbHTERyZDB-A371Fw" }, "geometry": null },
{ "type": "Feature", "properties": { "fid": 92, "Name": "EleXA Charging Station", "Address": "MJC7+6WX, Khwaeng Bang Na, Khet Bang Na", "Latitude": 13.6706134, "Longitude": 100.6148494, "Google_Rating": 1.0, "Total_Reviews": 1, "Place_ID": "ChIJ07BaJgmg4jARQiKl7sJWkz4" }, "geometry": null },
{ "type": "Feature", "properties": { "fid": 93, "Name": "ReverSharger Charging Station", "Address": "MJC4+M89, Sukhumvit Rd, Khwaeng Bang Na, Bang Na", "Latitude": 13.6716677, "Longitude": 100.6058619, "Google_Rating": 5.0, "Total_Reviews": 1, "Place_ID": "ChIJf1tpVBCg4jARNhytRQAt8UM" }, "geometry": null },
{ "type": "Feature", "properties": { "fid": 94, "Name": "PTT Charging Station", "Address": "MJ79+H8C, Lasalle 31 Alley, Khwaeng Bang Na, Khet Bang Na", "Latitude": 13.6639423, "Longitude": 100.6182665, "Google_Rating": 4.0, "Total_Reviews": 1, "Place_ID": "ChIJf0HQwQqg4jARtEdOvUBcc0s" }, "geometry": null },
{ "type": "Feature", "properties": { "fid": 95, "Name": "EA Anywhere Charging Station", "Address": "MJ55+GX6 7-Eleven Soi Lasalle 16, Khwaeng Bang Na, Khet Bang Na", "Latitude": 13.6587752, "Longitude": 100.6098817, "Google_Rating": 5.0, "Total_Reviews": 1, "Place_ID": "ChIJQQ-ganKg4jARCclEXHeSSps" }, "geometry": null },
{ "type": "Feature", "properties": { "fid": 96, "Name": "EA Anywhere Charging Station", "Address": "101 Soi Suan Luang, Bang Kho, Chom Thong", "Latitude": 13.7114175, "Longitude": 100.457721, "Google_Rating": 1.0, "Total_Reviews": 1, "Place_ID": "ChIJyU3QsGuY4jARsOhaq5iX6dQ" }, "geometry": null },
{ "type": "Feature", "properties": { "fid": 97, "Name": "MEA EV Charging Station", "Address": "Lasalle Rd, Bang Na Tai, Bang Na", "Latitude": 13.655487, "Longitude": 100.645561, "Google_Rating": 5.0, "Total_Reviews": 1, "Place_ID": "ChIJE4pDgr5fHTERqmg0Dtbsg3c" }, "geometry": null },
{ "type": "Feature", "properties": { "fid": 98, "Name": "ReverSharger Charging Station", "Address": "JM83+VF4 Theparak Subdistrict Mueang Samut Prakan District", "Latitude": 13.6171266, "Longitude": 100.6537075, "Google_Rating": 5.0, "Total_Reviews": 1, "Place_ID": "ChIJF-Z3JhhfHTERfY173_mGlN8" }, "geometry": null },
{ "type": "Feature", "properties": { "fid": 99, "Name": "EA Anywhere Charging Station", "Address": "ศูนย์การค้า Whizdom ( Station2 อาคารจอดรถชั้น3 Khwaeng Bang Chak, Khet Phra Khanong", "Latitude": 13.6859209, "Longitude": 100.612994, "Google_Rating": 5.0, "Total_Reviews": 1, "Place_ID": "ChIJiS18pPif4jARLhvL-KDcHMg" }, "geometry": null },
{ "type": "Feature", "properties": { "fid": 100, "Name": "ReverSharger Charging Station", "Address": "181 Thanon Yannawa, บางโพงพาง Yan Nawa", "Latitude": 13.6875867, "Longitude": 100.5338439, "Google_Rating": 5.0, "Total_Reviews": 1, "Place_ID": "ChIJmalkFf6h4jARFQGl4dElR0Q" }, "geometry": null },
{ "type": "Feature", "properties": { "fid": 101, "Name": "EA Anywhere Charging Station", "Address": "60 Bang Na-Trat 48 Alley, Khwaeng Bang Na, Bang Na", "Latitude": 13.6645716, "Longitude": 100.642752, "Google_Rating": 1.0, "Total_Reviews": 1, "Place_ID": "ChIJc7aV0cFfHTERqDGqFnJQ_ZA" }, "geometry": null },
{ "type": "Feature", "properties": { "fid": 102, "Name": "EVolt Charging Station", "Address": "39 Debaratna Rd, Bang Kaeo, Amphoe Bang Phli", "Latitude": 13.646771, "Longitude": 100.682425, "Google_Rating": 5.0, "Total_Reviews": 1, "Place_ID": "ChIJP0ANvVxeHTERg7XVgEJxBGE" }, "geometry": null },
{ "type": "Feature", "properties": { "fid": 103, "Name": "VIRTA Charging Station", "Address": "753 ซอย บางนา-ตราด 42 Bang Na Nuea, Khet Bang Na", "Latitude": 13.6684439, "Longitude": 100.6373222, "Google_Rating": 5.0, "Total_Reviews": 1, "Place_ID": "ChIJsRA0RulfHTER9kdJjEyCvrU" }, "geometry": null },
{ "type": "Feature", "properties": { "fid": 104, "Name": "EA Anywhere Charging Station", "Address": "789, Thai Ban Mai, Mueang Samut Prakan District", "Latitude": 13.5837267, "Longitude": 100.6086007, "Google_Rating": 5.0, "Total_Reviews": 1, "Place_ID": "ChIJUzmuNLCn4jARj-1nNWR9bnE" }, "geometry": null },
{ "type": "Feature", "properties": { "fid": 105, "Name": "MG Super Charge Charging Station", "Address": "72 4 ManThana Village Bang Phli Yai, Subdistrict", "Latitude": 13.6062368, "Longitude": 100.6922836, "Google_Rating": 5.0, "Total_Reviews": 1, "Place_ID": "ChIJGUQpaLleHTERMPy20KJ1bPU" }, "geometry": null },
{ "type": "Feature", "properties": { "fid": 106, "Name": "Evolt Charging Station", "Address": "5 Nonsi 5 Alley, Nonsi Road, Chong Nonsi,Yan Nawa Chong Nonsi, Subdistrict", "Latitude": 13.6942067, "Longitude": 100.5420803, "Google_Rating": 5.0, "Total_Reviews": 1, "Place_ID": "ChIJ9SkyHlqf4jARhc-xRrUSmRw" }, "geometry": null },
{ "type": "Feature", "properties": { "fid": 107, "Name": "MEA EV Charging Station", "Address": "6217 Sukhumvit Rd, Tambon Pak Nam, Mueang Samut Prakan District", "Latitude": 13.594684, "Longitude": 100.6068063, "Google_Rating": 5.0, "Total_Reviews": 1, "Place_ID": "ChIJvxB-soOh4jARMtEj8-0mGdc" }, "geometry": null },
{ "type": "Feature", "properties": { "fid": 108, "Name": "EA Anywhere Charging Station", "Address": "451 บางนา-ตราด 19 แยก 24-1 Bang Na Nuea, Bang Na", "Latitude": 13.6691982, "Longitude": 100.6303588, "Google_Rating": 5.0, "Total_Reviews": 1, "Place_ID": "ChIJb1N4tSdfHTERjUhcL-68dxI" }, "geometry": null },
{ "type": "Feature", "properties": { "fid": 109, "Name": "ReverSharger Charging Station", "Address": "11 Suphaphong 3/1 Khwaeng Nong Bon, Khet Prawet", "Latitude": 13.6927148, "Longitude": 100.6431432, "Google_Rating": 5.0, "Total_Reviews": 1, "Place_ID": "ChIJZ-qX2HJgHTERoWBbnvhkoHo" }, "geometry": null },
{ "type": "Feature", "properties": { "fid": 110, "Name": "MEA EV Charging Station", "Address": "Pracha Uthit Rd, Khwaeng Rat Burana, Khet Rat Burana", "Latitude": 13.6687758, "Longitude": 100.5051612, "Google_Rating": 5.0, "Total_Reviews": 1, "Place_ID": "ChIJcRmq7Wqi4jARwsAcQIInvRA" }, "geometry": null },
{ "type": "Feature", "properties": { "fid": 111, "Name": "ReverSharger Charging Station", "Address": "3641 Rama IV Rd, Khwaeng Khlong Tan, Khet Khlong Toei", "Latitude": 13.715794, "Longitude": 100.5749981, "Google_Rating": 5.0, "Total_Reviews": 1, "Place_ID": "ChIJIzF2U6ef4jARQwFjWAjYJUc" }, "geometry": null },
{ "type": "Feature", "properties": { "fid": 112, "Name": "EA Anywhere Charging Station", "Address": "The Pano, Khwaeng Bang Phong Phang, Khet Yan Nawa", "Latitude": 13.6717701, "Longitude": 100.5417911, "Google_Rating": 1.0, "Total_Reviews": 1, "Place_ID": "ChIJmUnfC-6h4jARShe15wnNnU8" }, "geometry": null },
{ "type": "Feature", "properties": { "fid": 113, "Name": "ReverSharger Charging Station", "Address": "1424 Srinagarindra Rd, Khwaeng Suan Luang, Suan Luang", "Latitude": 13.7043257, "Longitude": 100.6453836, "Google_Rating": 5.0, "Total_Reviews": 1, "Place_ID": "ChIJm4T7U2pgHTERGlGwKkBwu90" }, "geometry": null },
{ "type": "Feature", "properties": { "fid": 114, "Name": "EleXA Charging Station", "Address": "JPJ6+QPX, Bang Phli Yai, Bang Phli District", "Latitude": 13.631993, "Longitude": 100.7118609, "Google_Rating": 1.0, "Total_Reviews": 1, "Place_ID": "ChIJf2maWipcHTER5RQZs2eh-Yw" }, "geometry": null },
{ "type": "Feature", "properties": { "fid": 115, "Name": "EA Anywhere Charging Station", "Address": "1342 Suksawat Road, Rat Burana Subdistrict, Bangkok , Bang Phueng, Phra Pradaeng, Samut Prakan,, 10130, 110 Suk Sawat 54 Alley, Rat Burana", "Latitude": 13.6633504, "Longitude": 100.5153164, "Google_Rating": 1.0, "Total_Reviews": 1, "Place_ID": "ChIJmU3iVjyi4jAR612EfNRskHw" }, "geometry": null },
{ "type": "Feature", "properties": { "fid": 116, "Name": "EA Anywhere Charging Station", "Address": "188 Khwaeng Thung Khru, Khet Thung Khru", "Latitude": 13.6246796, "Longitude": 100.5081635, "Google_Rating": 3.0, "Total_Reviews": 1, "Place_ID": "ChIJ64TpkcCj4jARjbHZ9nCg-ao" }, "geometry": null },
{ "type": "Feature", "properties": { "fid": 117, "Name": "EA Anywhere Charging Station", "Address": "JPH9+VV2 MG Nakornlaung to Mega Bangna Tambon Rachathewa, สมุทรปราการ", "Latitude": 13.6296392, "Longitude": 100.7196505, "Google_Rating": 4.0, "Total_Reviews": 1, "Place_ID": "ChIJKfYy5y1cHTERSO7L_Jn2hJ8" }, "geometry": null },
{ "type": "Feature", "properties": { "fid": 118, "Name": "PTT Charging Station", "Address": "Pracha Uthit 76 Alley, Khwaeng Thung Khru, Khet Thung Khru", "Latitude": 13.6080017, "Longitude": 100.48749, "Google_Rating": 5.0, "Total_Reviews": 1, "Place_ID": "ChIJHblWxpuj4jARyJImPwG7HdA" }, "geometry": null },
{ "type": "Feature", "properties": { "fid": 119, "Name": "EA Anywhere Charging Station", "Address": "10 Srinagarindra Rd, Khwaeng Nong Bon, Khet Prawet", "Latitude": 13.7005385, "Longitude": 100.6464667, "Google_Rating": 1.0, "Total_Reviews": 1, "Place_ID": "ChIJBX8oDWxgHTERGOArJP_wHL8" }, "geometry": null },
{ "type": "Feature", "properties": { "fid": 120, "Name": "Altervim Charging Station", "Address": "Altervim Super Charge สาขา โลตัส สุขุมวิท50 เลขที่1710 Sukhumvit 50 Aly, Phra Khanong, Khlong Toei", "Latitude": 13.7046078, "Longitude": 100.6004123, "Google_Rating": 5.0, "Total_Reviews": 1, "Place_ID": "ChIJua2-6Zyf4jARySIHREaGbvM" }, "geometry": null },
{ "type": "Feature", "properties": { "fid": 121, "Name": "EA Anywhere Charging Station", "Address": "123 5 Phetcha Hueng Rd Tambon Bang Yo, สมุทรปราการ", "Latitude": 13.6704004, "Longitude": 100.5560365, "Google_Rating": 5.0, "Total_Reviews": 1, "Place_ID": "ChIJiY7lYMGh4jARJ8b8c-9doBc" }, "geometry": null },
{ "type": "Feature", "properties": { "fid": 122, "Name": "Virta Global Charging Station", "Address": "PJ42+7CR, Khwaeng Phra Khanong, Khet Khlong Toei", "Latitude": 13.70575, "Longitude": 100.601014, "Google_Rating": 1.0, "Total_Reviews": 1, "Place_ID": "ChIJp4-BtOuf4jAROIwj9LGF_XY" }, "geometry": null },
{ "type": "Feature", "properties": { "fid": 123, "Name": "EA Anywhere Charging Station", "Address": "567 Bang Phli Yai, Bang Phli District", "Latitude": 13.6285228, "Longitude": 100.7074784, "Google_Rating": 5.0, "Total_Reviews": 1, "Place_ID": "ChIJsYR0N4JeHTER0go-oqW46MM" }, "geometry": null },
{ "type": "Feature", "properties": { "fid": 124, "Name": "EA Anywhere Charging Station", "Address": "JFVH+4P5 7-Eleven, Phutthabucha 36 Alley, Khwaeng Bang Mot, Khet Thung Khru", "Latitude": 13.6427678, "Longitude": 100.4793617, "Google_Rating": 5.0, "Total_Reviews": 1, "Place_ID": "ChIJcfXShgGj4jAR1EcF6-pYxz8" }, "geometry": null },
{ "type": "Feature", "properties": { "fid": 125, "Name": "EA Anywhere Charging Station", "Address": "70 1, Tambon Bang Phli Yai, สมุทรปราการ", "Latitude": 13.6409664, "Longitude": 100.7119365, "Google_Rating": 1.0, "Total_Reviews": 1, "Place_ID": "ChIJ34nUudVdHTERoSgy_62TebE" }, "geometry": null },
{ "type": "Feature", "properties": { "fid": 126, "Name": "MEA Charging Station", "Address": "ซอย สรรพาวุธ 2 Bang Na Nuea, Bang Na", "Latitude": 13.6760635, "Longitude": 100.5960477, "Google_Rating": 5.0, "Total_Reviews": 1, "Place_ID": "ChIJm3OdPBqg4jARQ_EJ75C3-tw" }, "geometry": null },
{ "type": "Feature", "properties": { "fid": 127, "Name": "BMW Destination Charging Station", "Address": "Tambon, 39 Debaratna Rd, ตำบล บางแก้ว,ต. บางแก้ว,", "Latitude": 13.6439, "Longitude": 100.6805, "Google_Rating": 5.0, "Total_Reviews": 1, "Place_ID": "ChIJD6hP61teHTER5Es8fxJnFkU" }, "geometry": null },
{ "type": "Feature", "properties": { "fid": 128, "Name": "EA Anywhere Charging Station", "Address": "PJ5C+J7J MG Service Center Onnut Khwaeng Suan Luang, Khet Suan Luang", "Latitude": 13.7090751, "Longitude": 100.6206487, "Google_Rating": 1.0, "Total_Reviews": 1, "Place_ID": "ChIJeZzTECBgHTERh9r8Ui33Y2k" }, "geometry": null },
{ "type": "Feature", "properties": { "fid": 129, "Name": "MEA Charging Station", "Address": "39 ถ. สุขุมวิท Bang Chak, บางจาก", "Latitude": 13.694665, "Longitude": 100.601974, "Google_Rating": 5.0, "Total_Reviews": 1, "Place_ID": "ChIJ421syx-g4jARhAJ1FnOzNJc" }, "geometry": null },
{ "type": "Feature", "properties": { "fid": 130, "Name": "ReverSharger Charging Station", "Address": "Srinagarindra Rd, Khwaeng Nong Bon, Khet Prawet", "Latitude": 13.6959727, "Longitude": 100.6476847, "Google_Rating": 5.0, "Total_Reviews": 1, "Place_ID": "ChIJ__5p_W1gHTERzpoG4eUcS_4" }, "geometry": null },
{ "type": "Feature", "properties": { "fid": 131, "Name": "Sharge Charging Station", "Address": "3079, 22 Sukhumvit Rd, Khwaeng Bang Chak, Khet Phra Khanong", "Latitude": 13.685108, "Longitude": 100.610787, "Google_Rating": 1.0, "Total_Reviews": 1, "Place_ID": "ChIJFRUMhAKg4jARqTdaRnL_jQY" }, "geometry": null },
{ "type": "Feature", "properties": { "fid": 132, "Name": "MEA EV Charging Station", "Address": "1222 Rama III Rd, Khwaeng Bang Phong Phang, Khet Yan Nawa", "Latitude": 13.6772643, "Longitude": 100.5471481, "Google_Rating": 5.0, "Total_Reviews": 1, "Place_ID": "ChIJN6bIBOah4jARUfzuv2QzC7I" }, "geometry": null },
{ "type": "Feature", "properties": { "fid": 133, "Name": "Altervim Charging Station", "Address": "Altervim Super Charge สาขา โลตัส ประชาอุทิศ 137/1 Pracha Uthit Rd, Thung Khru", "Latitude": 13.6393365, "Longitude": 100.500615, "Google_Rating": 2.0, "Total_Reviews": 1, "Place_ID": "ChIJJVrXfSej4jARPrUYYCzdzy0" }, "geometry": null },
{ "type": "Feature", "properties": { "fid": 134, "Name": "EleXA Charging Station", "Address": "226 Suk Sawat Rd, Tambon Bang Phueng, Phra Pradaeng District", "Latitude": 13.6527499, "Longitude": 100.5211433, "Google_Rating": 5.0, "Total_Reviews": 1, "Place_ID": "ChIJVWIxpi-i4jARTViHa9YQs5A" }, "geometry": null },
{ "type": "Feature", "properties": { "fid": 135, "Name": "EA Anywhere Charging Station", "Address": "MGR3+7RM, Rama III Rd, Khwaeng Bang Khlo, Khet Bang Kho Laem", "Latitude": 13.6906012, "Longitude": 100.5044993, "Google_Rating": 5.0, "Total_Reviews": 1, "Place_ID": "ChIJuw5u0p-Y4jARP2XSCp-UbsQ" }, "geometry": null },
{ "type": "Feature", "properties": { "fid": 136, "Name": "EA Anywhere Charging Station", "Address": "JJP6+GHC, Thepharak, Mueang Samut Prakan District", "Latitude": 13.6363031, "Longitude": 100.6113888, "Google_Rating": 3.0, "Total_Reviews": 1, "Place_ID": "ChIJz4hyK7Ch4jARy-Bxw3ZR-hs" }, "geometry": null },
{ "type": "Feature", "properties": { "fid": 137, "Name": "EA Anywhere Charging Station", "Address": "บิ๊กซี Dao Khanong, Khet Thon Buri", "Latitude": 13.6996467, "Longitude": 100.4836957, "Google_Rating": 5.0, "Total_Reviews": 1, "Place_ID": "ChIJTZJadn2Y4jARoIV5v4Yrw24" }, "geometry": null },
{ "type": "Feature", "properties": { "fid": 138, "Name": "ev station pluz Charging Station", "Address": "7/22 Srinagarindra Rd, Samrong Nuea, Mueang Samut Prakan District", "Latitude": 13.6426701, "Longitude": 100.6348715, "Google_Rating": 5.0, "Total_Reviews": 1, "Place_ID": "ChIJrckjbQBfHTERz5ha8yYYAsM" }, "geometry": null },
{ "type": "Feature", "properties": { "fid": 139, "Name": "EA Anywhere Charging Station", "Address": "7 Suvarnabhumi 3 Rd, Tambon Nong Prue, Bang Phli District", "Latitude": 13.6871372, "Longitude": 100.7493334, "Google_Rating": 5.0, "Total_Reviews": 1, "Place_ID": "ChIJcVRnYnlnHTERek83ZiTm7RQ" }, "geometry": null },
{ "type": "Feature", "properties": { "fid": 140, "Name": "EA Anywhere Charging Station", "Address": "139 2 Rat Burana Rd, Khwaeng Bang Pakok, Khet Rat Burana", "Latitude": 13.6856472, "Longitude": 100.4943567, "Google_Rating": 5.0, "Total_Reviews": 1, "Place_ID": "ChIJE6MGlHmi4jARdzFuY28ggqQ" }, "geometry": null },
{ "type": "Feature", "properties": { "fid": 141, "Name": "EVAT Charging Station", "Address": "เลขที่ 433/30 ถนน จันทร์ Wat Phraya Krai, Khet Bang Kho Laem", "Latitude": 13.7089587, "Longitude": 100.5155034, "Google_Rating": 5.0, "Total_Reviews": 1, "Place_ID": "ChIJEeySB7mY4jARfXvraaEkzS0" }, "geometry": null },
{ "type": "Feature", "properties": { "fid": 142, "Name": "EA Anywhere Charging Station", "Address": "PF3Q+7WX ถนน มไหสวรรย์ Khwaeng Samre, Thon Buri", "Latitude": 13.7032283, "Longitude": 100.4898569, "Google_Rating": 4.0, "Total_Reviews": 1, "Place_ID": "ChIJweOktoiY4jARnNbjLKWznek" }, "geometry": null },
{ "type": "Feature", "properties": { "fid": 143, "Name": "EA Anywhere Charging Station", "Address": "JJWV+H8C, Bang Kaeo, Bang Phli District", "Latitude": 13.6464386, "Longitude": 100.6432753, "Google_Rating": 3.0, "Total_Reviews": 1, "Place_ID": "ChIJS2yyg7pfHTERvVKjdvOBgDk" }, "geometry": null },
{ "type": "Feature", "properties": { "fid": 144, "Name": "PTT Charging Station", "Address": "PH6Q+WR2, Rama IV Rd, Khwaeng Phra Khanong, Khet Khlong Toei", "Latitude": 13.7122613, "Longitude": 100.5895155, "Google_Rating": 1.0, "Total_Reviews": 1, "Place_ID": "ChIJ71YOTbyf4jAR6ZxBXWyFK7E" }, "geometry": null },
{ "type": "Feature", "properties": { "fid": 145, "Name": "MEA EV Charging Station @ Caltex Bang Bo 1", "Address": "361, ต, 8, Khlong Dan, Bang Bo District", "Latitude": 13.506014, "Longitude": 100.826854, "Google_Rating": 5.0, "Total_Reviews": 1, "Place_ID": "ChIJA97ivWhFHTER7xuiGAqKLqI" }, "geometry": null },
{ "type": "Feature", "properties": { "fid": 146, "Name": "MEA Charging Station", "Address": "369, 5 Sukhumvit Rd, Khlong Dan, Bang Bo District", "Latitude": 13.506991, "Longitude": 100.826078, "Google_Rating": 5.0, "Total_Reviews": 1, "Place_ID": "ChIJ-4w15GhFHTERBleM24Acb6g" }, "geometry": null },
{ "type": "Feature", "properties": { "fid": 147, "Name": "Electric Vehicle Charging Station", "Address": "313 Rural Rd สป 4010 Ban Khlong Suan, Phra Samut Chedi District", "Latitude": 13.545314, "Longitude": 100.476791, "Google_Rating": 5.0, "Total_Reviews": 1, "Place_ID": "ChIJxTcquFul4jARcAL5Ni3h2Xw" }, "geometry": null },
{ "type": "Feature", "properties": { "fid": 148, "Name": "MG Super Charge Charging Station", "Address": "MJ2R+84F, Srinagarindra Rd, Dan Samrong Subdistrict Municipality", "Latitude": 13.6508243, "Longitude": 100.6403063, "Google_Rating": 1.0, "Total_Reviews": 1, "Place_ID": "ChIJqYCMkJdfHTERmlqxCRSbRJI" }, "geometry": null },
{ "type": "Feature", "properties": { "fid": 149, "Name": "EA Anywhere Charging Station", "Address": "49 หมู่ 2 Sukhumvit Rd, Thai Ban, Mueang Samut Prakan District", "Latitude": 13.5449159, "Longitude": 100.6180072, "Google_Rating": 5.0, "Total_Reviews": 1, "Place_ID": "ChIJbZP3SR6n4jARclnDlpwmve0" }, "geometry": null },
{ "type": "Feature", "properties": { "fid": 150, "Name": "MEA EV Charging Station", "Address": "Sukhumvit Rd, Bang Pu, Subdistrict Municipality", "Latitude": 13.532237, "Longitude": 100.6318216, "Google_Rating": 5.0, "Total_Reviews": 1, "Place_ID": "ChIJzZF4PG5YHTERz11tWLPn9X8" }, "geometry": null },
{ "type": "Feature", "properties": { "fid": 151, "Name": "ReverSharger Charging Station", "Address": "MJ2R+82H บ้านกลางเมือง Tambon Sam Rong Nua, Amphoe Mueang Samut Prakan", "Latitude": 13.6508009, "Longitude": 100.6401002, "Google_Rating": 5.0, "Total_Reviews": 1, "Place_ID": "ChIJt_lwkJdfHTERZ-u6y8b8Flk" }, "geometry": null },
{ "type": "Feature", "properties": { "fid": 152, "Name": "EA Anywhere Charging Station", "Address": "JJHM+V65, Bang Kaeo, Bang Phli District", "Latitude": 13.6296315, "Longitude": 100.6331196, "Google_Rating": 4.0, "Total_Reviews": 1, "Place_ID": "ChIJ0RJfCTFfHTERMGTwkEyrryg" }, "geometry": null },
{ "type": "Feature", "properties": { "fid": 153, "Name": "MEA EV Charging Station", "Address": "123/165 Ekkachai Rd, Bang Khun Thian, Chom Thong", "Latitude": 13.6852035, "Longitude": 100.4455254, "Google_Rating": 5.0, "Total_Reviews": 1, "Place_ID": "ChIJlzbmnq6i4jAR6ru1OPNAtME" }, "geometry": null },
{ "type": "Feature", "properties": { "fid": 154, "Name": "EA Anywhere Charging Station", "Address": "99/9 Village No. 2 ,Taiban Tambon Thai Ban Mai, Mueang Samut Prakan District", "Latitude": 13.5624887, "Longitude": 100.6099787, "Google_Rating": 5.0, "Total_Reviews": 1, "Place_ID": "ChIJXwCDC2Wn4jARvAzmxxZ7egk" }, "geometry": null },
{ "type": "Feature", "properties": { "fid": 155, "Name": "Altervim Charging Station", "Address": "7-Eleven สาขา บางนาทาวเวอร์ (KS) (03184) 51/48 Bang Na-Trat KM. 6 Alley, Bang Kaeo, Bang Phli District", "Latitude": 13.6602205, "Longitude": 100.662375, "Google_Rating": 5.0, "Total_Reviews": 1, "Place_ID": "ChIJlRqy_0RfHTERWJz6XrDmCg4" }, "geometry": null },
{ "type": "Feature", "properties": { "fid": 156, "Name": "SPARK Charging Station", "Address": "Rat Burana Rd, Bang Pakok, Rat Burana", "Latitude": 13.683732, "Longitude": 100.498487, "Google_Rating": 5.0, "Total_Reviews": 1, "Place_ID": "ChIJQw7_Hwqj4jARyX2DdHMdSq4" }, "geometry": null },
{ "type": "Feature", "properties": { "fid": 157, "Name": "Gentari Charging Station", "Address": "JHQV+CCH, Sukhumvit Rd, Samrong Nuea, Subdistrict Municipality", "Latitude": 13.6385646, "Longitude": 100.5936247, "Google_Rating": 5.0, "Total_Reviews": 1, "Place_ID": "ChIJjeEqpfWg4jARsTGCF3-23Sk" }, "geometry": null },
{ "type": "Feature", "properties": { "fid": 158, "Name": "PTT Charging Station", "Address": "127 Chaloem Phrakiat Ratchakan Thi 9 Rd, Khwaeng Dok Mai, Khet Prawet", "Latitude": 13.7009119, "Longitude": 100.6884505, "Google_Rating": 5.0, "Total_Reviews": 1, "Place_ID": "ChIJV1PVSb5gHTER5sSq3kTu8Zk" }, "geometry": null },
{ "type": "Feature", "properties": { "fid": 159, "Name": "EV Station PluZ Charging Station", "Address": "PH7J+PVJ, Khwaeng Phra Khanong, Khet Khlong Toei", "Latitude": 13.714334, "Longitude": 100.5821313, "Google_Rating": 4.0, "Total_Reviews": 1, "Place_ID": "ChIJ3ZrhlqOf4jARokGsnijFFgk" }, "geometry": null },
{ "type": "Feature", "properties": { "fid": 160, "Name": "ReverSharger Charging Station", "Address": "45 45/2-3 Rat Burana Rd, Bang Pakok, Rat Burana", "Latitude": 13.6837128, "Longitude": 100.4987078, "Google_Rating": 5.0, "Total_Reviews": 1, "Place_ID": "ChIJfTx7J3Gi4jARR-YViDzXB-g" }, "geometry": null },
{ "type": "Feature", "properties": { "fid": 161, "Name": "PTT Charging Station", "Address": "MJ8W+FW2, Bang Na-Trat 35 Alley, Bang Na Nuea, Khet Bang Na", "Latitude": 13.6661323, "Longitude": 100.6472544, "Google_Rating": 4.0, "Total_Reviews": 1, "Place_ID": "ChIJAfcET8FfHTERnwJVM9BfGJU" }, "geometry": null },
{ "type": "Feature", "properties": { "fid": 162, "Name": "MEA EV Charging Station", "Address": "HQ4C+JC4 Subdistrict TH Kan Kheha Haeng Chat Bang Phli Alley, Bang Sao Thong, Amphoe Bang Sao Thong", "Latitude": 13.5565215, "Longitude": 100.7710661, "Google_Rating": 5.0, "Total_Reviews": 1, "Place_ID": "ChIJMwRRJRFbHTERKA8olfSH6pA" }, "geometry": null },
{ "type": "Feature", "properties": { "fid": 163, "Name": "EA Anywhere Charging Station", "Address": "197 1, Bang Phriang, Bang Bo District", "Latitude": 13.5507745, "Longitude": 100.7881772, "Google_Rating": 5.0, "Total_Reviews": 1, "Place_ID": "ChIJsTn2RSVbHTERYsfeQgP8e3k" }, "geometry": null },
{ "type": "Feature", "properties": { "fid": 164, "Name": "SPARK Charging Station", "Address": "511 Srinagarindra Rd, Tambon Sam Rong Nua, Mueang Samut Prakan District", "Latitude": 13.6508838, "Longitude": 100.6402296, "Google_Rating": 5.0, "Total_Reviews": 1, "Place_ID": "ChIJbQgg3StfHTERN60zUOo7Q7U" }, "geometry": null },
{ "type": "Feature", "properties": { "fid": 165, "Name": "PTT Charging Station", "Address": "MFMX+9Q4 PTT Station สาขาราษฎร์บูรณะ ขาออก Khwaeng Bang Pakok, Khet Rat Burana", "Latitude": 13.6833919, "Longitude": 100.4994496, "Google_Rating": 3.0, "Total_Reviews": 1, "Place_ID": "ChIJTbrEI3Gi4jARm1e09LRHStw" }, "geometry": null },
{ "type": "Feature", "properties": { "fid": 166, "Name": "Virta Charging Station", "Address": "257 Charoen Nakhon Rd, Khwaeng Samre, Khet Thon Buri", "Latitude": 13.704865, "Longitude": 100.4914, "Google_Rating": 1.0, "Total_Reviews": 1, "Place_ID": "ChIJjyOZII-Y4jAR0cw_VaDkcSQ" }, "geometry": null },
{ "type": "Feature", "properties": { "fid": 167, "Name": "EA Anywhere Charging Station", "Address": "MP58+MH9, Tambon Rachathewa, Amphoe Bang Phli", "Latitude": 13.6591698, "Longitude": 100.7164797, "Google_Rating": 5.0, "Total_Reviews": 1, "Place_ID": "ChIJt9-yRuddHTERtUMLq-Xbxm8" }, "geometry": null },
{ "type": "Feature", "properties": { "fid": 168, "Name": "EA Anywhere Charging Station", "Address": "1, 1 Naradhiwas Rajanagarindra Rd, Thung Wat Don, Sathon", "Latitude": 13.7105016, "Longitude": 100.5355036, "Google_Rating": 1.0, "Total_Reviews": 1, "Place_ID": "ChIJ95If9Emf4jAR5HSSzrcb2Mg" }, "geometry": null },
{ "type": "Feature", "properties": { "fid": 169, "Name": "EA Anywhere Charging Station", "Address": "1044 หมู่ที่ 15 ต.บางเสาธง Bang Sao Thong, Bang Sao Thong District", "Latitude": 13.5564445, "Longitude": 100.7635006, "Google_Rating": 5.0, "Total_Reviews": 1, "Place_ID": "ChIJ6THKVQ5bHTERq54yOweBZb0" }, "geometry": null },
{ "type": "Feature", "properties": { "fid": 170, "Name": "EA Anywhere Charging Station", "Address": "999 Nong Prue, Bang Phli District", "Latitude": 13.6813774, "Longitude": 100.7525356, "Google_Rating": 1.0, "Total_Reviews": 1, "Place_ID": "ChIJn9i7sX9nHTERucdWOidz-oI" }, "geometry": null },
{ "type": "Feature", "properties": { "fid": 171, "Name": "PTT Charging Station", "Address": "MJHW+R2G, Srinagarindra Rd, Khwaeng Nong Bon, Khet Prawet", "Latitude": 13.679572, "Longitude": 100.6450902, "Google_Rating": 2.0, "Total_Reviews": 1, "Place_ID": "ChIJo2doit5fHTER-D4nf_k3DJQ" }, "geometry": null },
{ "type": "Feature", "properties": { "fid": 172, "Name": "Liikennevirta Oy (CPO) Charging Station", "Address": "JP7F+FV2, Bang Chalong, Amphoe Bang Phli", "Latitude": 13.613637, "Longitude": 100.72463, "Google_Rating": 5.0, "Total_Reviews": 1, "Place_ID": "ChIJae8lvT1cHTERm8qP81gEeew" }, "geometry": null },
{ "type": "Feature", "properties": { "fid": 173, "Name": "MG Super Charge Charging Station", "Address": "129 39 Bang Chalong Sub-District Bang Phli District", "Latitude": 13.6296869, "Longitude": 100.7196123, "Google_Rating": 0.0, "Total_Reviews": 0, "Place_ID": "ChIJGyPY4C1cHTERt9SRiDCb-UY" }, "geometry": null },
{ "type": "Feature", "properties": { "fid": 174, "Name": "EA Anywhere Charging Station", "Address": "JPMQ+477 Subdistrict TH Bang Chalong, Bang Phli District", "Latitude": 13.6327718, "Longitude": 100.7381769, "Google_Rating": 0.0, "Total_Reviews": 0, "Place_ID": "ChIJiQESn0xcHTERLdqGZFvrBqM" }, "geometry": null },
{ "type": "Feature", "properties": { "fid": 175, "Name": "Liikennevirta Oy (CPO) Charging Station", "Address": "JPQV+CQH, Bang Na Trat - Suvarnabumi Frontage Rd, Bang Chalong, Amphoe Bang Phli", "Latitude": 13.638572, "Longitude": 100.744499, "Google_Rating": 0.0, "Total_Reviews": 0, "Place_ID": "ChIJ1x317q1dHTERw7S9R983SL0" }, "geometry": null },
{ "type": "Feature", "properties": { "fid": 176, "Name": "EVolt Charging Station", "Address": "MM26+HJC, Bang Kaeo, Amphoe Bang Phli", "Latitude": 13.6514476, "Longitude": 100.6615078, "Google_Rating": 0.0, "Total_Reviews": 0, "Place_ID": "ChIJedU3UbJfHTERm5w4ULH4f_w" }, "geometry": null },
{ "type": "Feature", "properties": { "fid": 177, "Name": "Evolt Charging Station", "Address": "JMWH+PVH, Debaratna Rd, Bang Kaeo, Amphoe Bang Phli", "Latitude": 13.6468198, "Longitude": 100.6797417, "Google_Rating": 0.0, "Total_Reviews": 0, "Place_ID": "ChIJ6bMgFlteHTERWAaODwqUYak" }, "geometry": null },
{ "type": "Feature", "properties": { "fid": 178, "Name": "EA Anywhere Charging Station", "Address": "378 Bearing Rd, Samrong Nuea, Mueang Samut Prakan District", "Latitude": 13.6455587, "Longitude": 100.6357691, "Google_Rating": 0.0, "Total_Reviews": 0, "Place_ID": "ChIJY0bbPgdfHTER7iBTKqf8zz4" }, "geometry": null },
{ "type": "Feature", "properties": { "fid": 179, "Name": "Nissan Charging Station", "Address": "77 1 Racha Thewa, Amphoe Bang Phli", "Latitude": 13.6306009, "Longitude": 100.7179617, "Google_Rating": 0.0, "Total_Reviews": 0, "Place_ID": "ChIJcwJrNCxcHTERRXx64csTdrE" }, "geometry": null },
{ "type": "Feature", "properties": { "fid": 180, "Name": "ReverSharger Charging Station", "Address": "หมู่ที่ 1 99/999 Bang Phli District", "Latitude": 13.6330721, "Longitude": 100.7138439, "Google_Rating": 0.0, "Total_Reviews": 0, "Place_ID": "ChIJfaEHDStcHTERG-BdxbF7MHY" }, "geometry": null },
{ "type": "Feature", "properties": { "fid": 181, "Name": "Virta Charging Station", "Address": "15, Parking building, 1st floor,, 2 Bang Na-Trat Frontage Rd, Bang Phli Yai", "Latitude": 13.6454518, "Longitude": 100.6915323, "Google_Rating": 0.0, "Total_Reviews": 0, "Place_ID": "ChIJp-CZZ2ZeHTERscxoaAm_tNU" }, "geometry": null },
{ "type": "Feature", "properties": { "fid": 182, "Name": "BMW Destination Charging Station", "Address": "38, 38 39 ซอย1/3, Bang Kaeo, Bangkok", "Latitude": 13.6447511, "Longitude": 100.6806503, "Google_Rating": 0.0, "Total_Reviews": 0, "Place_ID": "ChIJqQawglteHTERxm1hlkKyOOE" }, "geometry": null },
{ "type": "Feature", "properties": { "fid": 183, "Name": "BMW Destination Charging Station", "Address": "38, 39 Bangkok South Outer Ring Rd, Bang Kaeo, Bang Phli District", "Latitude": 13.6465628, "Longitude": 100.6810438, "Google_Rating": 0.0, "Total_Reviews": 0, "Place_ID": "ChIJX-xRZlteHTERjN7scfPLEhI" }, "geometry": null },
{ "type": "Feature", "properties": { "fid": 184, "Name": "ReverSharger Charging Station", "Address": "JMXH+XW7, Bang Kaeo, Bang Phli District", "Latitude": 13.649901, "Longitude": 100.6797908, "Google_Rating": 0.0, "Total_Reviews": 0, "Place_ID": "ChIJzSNu6UReHTERZyQWTCfborA" }, "geometry": null },
{ "type": "Feature", "properties": { "fid": 185, "Name": "Evolt Charging Station", "Address": "ปลัดเปรียง 3 Bang Phli District", "Latitude": 13.6525526, "Longitude": 100.6615826, "Google_Rating": 0.0, "Total_Reviews": 0, "Place_ID": "ChIJG26wqLNfHTERuDyB-I0u4KM" }, "geometry": null },
{ "type": "Feature", "properties": { "fid": 186, "Name": "EVolt Charging Station", "Address": "MM27+V2C, Bang Kaeo, Amphoe Bang Phli", "Latitude": 13.6521952, "Longitude": 100.6625111, "Google_Rating": 0.0, "Total_Reviews": 0, "Place_ID": "ChIJDSxeA7NfHTER_Kx2RWiZCjY" }, "geometry": null },
{ "type": "Feature", "properties": { "fid": 187, "Name": "Shell Recharge Charging Station", "Address": "Kw.Thakam Kt, 102/1 Rama II Rd, Khwaeng Tha Kham, Bang Khun Thian", "Latitude": 13.668028, "Longitude": 100.44764, "Google_Rating": 0.0, "Total_Reviews": 0, "Place_ID": "ChIJl96Vtcmi4jARfPQJecjHycU" }, "geometry": null },
{ "type": "Feature", "properties": { "fid": 188, "Name": "ReverSharger Charging Station", "Address": "MM72+FG9, Debaratna Rd, Bang Na Tai, Bang Na", "Latitude": 13.6636507, "Longitude": 100.6513453, "Google_Rating": 0.0, "Total_Reviews": 0, "Place_ID": "ChIJ8fqessdfHTERuZA682Wp9vg" }, "geometry": null },
{ "type": "Feature", "properties": { "fid": 189, "Name": "Shell Recharge Charging Station", "Address": "23/119 Bang Na-Trat Frontage Rd, Tambon Bang Kaeo, Bang Phli District", "Latitude": 13.6626377, "Longitude": 100.6571523, "Google_Rating": 0.0, "Total_Reviews": 0, "Place_ID": "ChIJSxKqu8lfHTERkXXhcgBFumk" }, "geometry": null },
{ "type": "Feature", "properties": { "fid": 190, "Name": "EA Anywhere Charging Station", "Address": "MJCP+7F6, Soi Bang Na-Trat 23, Bang Na Nuea, Bang Na", "Latitude": 13.6706517, "Longitude": 100.6361392, "Google_Rating": 0.0, "Total_Reviews": 0, "Place_ID": "ChIJ1ciJLu9fHTERAa_b-0lccKQ" }, "geometry": null },
{ "type": "Feature", "properties": { "fid": 191, "Name": "Electric Vehicle Charging Station", "Address": "1748 Debaratna Rd, Bang Na Tai, Bang Na", "Latitude": 13.6646606, "Longitude": 100.6432927, "Google_Rating": 0.0, "Total_Reviews": 0, "Place_ID": "ChIJ0aCFbJdfHTER77KRY3dvOO0" }, "geometry": null },
{ "type": "Feature", "properties": { "fid": 192, "Name": "OneCharge Charging Station", "Address": "8 Udom Suk 44 Alley, Bang Na Nuea, Bang Na", "Latitude": 13.6775719, "Longitude": 100.631594, "Google_Rating": 0.0, "Total_Reviews": 0, "Place_ID": "ChIJnb0Q9FpfHTERE97YXVUGZ5Y" }, "geometry": null },
{ "type": "Feature", "properties": { "fid": 193, "Name": "EVREX Charging Station", "Address": "27, 29 Phillips Alley, Bang Na Tai, Bang Na", "Latitude": 13.6647893, "Longitude": 100.6332546, "Google_Rating": 0.0, "Total_Reviews": 0, "Place_ID": "ChIJXaHRjl5fHTERMZ6wX_3eaNw" }, "geometry": null },
{ "type": "Feature", "properties": { "fid": 194, "Name": "Evolt Charging Station", "Address": "Parking lot 2nd floor , Zone C 06 - 07", "Latitude": 13.669826, "Longitude": 100.634725, "Google_Rating": 0.0, "Total_Reviews": 0, "Place_ID": "ChIJ7xr24-5fHTERLXcxbvXeY30" }, "geometry": null },
{ "type": "Feature", "properties": { "fid": 195, "Name": "EVAT Charging Station", "Address": "585 Bang Na-Trat 5 Alley, บางนา Bang Na", "Latitude": 13.6693924, "Longitude": 100.6346827, "Google_Rating": 0.0, "Total_Reviews": 0, "Place_ID": "ChIJo55r7-5fHTERK0BK_Yc0vvo" }, "geometry": null },
{ "type": "Feature", "properties": { "fid": 196, "Name": "EA Anywhere Charging Station", "Address": "578 Srinagarindra Rd, Khwaeng Nong Bon, Khet Prawet", "Latitude": 13.6740904, "Longitude": 100.6455652, "Google_Rating": 0.0, "Total_Reviews": 0, "Place_ID": "ChIJFQAM59xfHTERRQHulIQ0oQI" }, "geometry": null },
{ "type": "Feature", "properties": { "fid": 197, "Name": "MG Super Charge Charging Station", "Address": "695 Sukhumvit 103 Rd, Khwaeng Bang Chak, Khet Phra Khanong", "Latitude": 13.678236, "Longitude": 100.632396, "Google_Rating": 0.0, "Total_Reviews": 0, "Place_ID": "ChIJ7XsYo-RfHTER6a8K7au_wUg" }, "geometry": null },
{ "type": "Feature", "properties": { "fid": 198, "Name": "Sharge Charging Station", "Address": "10260 TH BITEC Bang Na, Khwaeng Bang Na, Khet Bang Na", "Latitude": 13.6693614, "Longitude": 100.6100791, "Google_Rating": 0.0, "Total_Reviews": 0, "Place_ID": "ChIJ7U4-bA6g4jAR4hl8fwm5La8" }, "geometry": null },
{ "type": "Feature", "properties": { "fid": 199, "Name": "EA Anywhere Charging Station", "Address": "MMFR+FGW Ramkhamhaeng Khwaeng Dok Mai, Khet Prawet", "Latitude": 13.6737377, "Longitude": 100.6913273, "Google_Rating": 0.0, "Total_Reviews": 0, "Place_ID": "ChIJVXdxCxleHTERYJSjjVIYpcw" }, "geometry": null },
{ "type": "Feature", "properties": { "fid": 200, "Name": "iGreen+ Charging Station", "Address": "238 King Kaeo Rd, Racha Thewa, Bang Phli District", "Latitude": 13.6592465, "Longitude": 100.7163426, "Google_Rating": 0.0, "Total_Reviews": 0, "Place_ID": "ChIJSVuoOThdHTERRwpLCuH18rw" }, "geometry": null },
{ "type": "Feature", "properties": { "fid": 201, "Name": "ReverSharger Charging Station", "Address": "MHJX+PXR สุขุมวิท 66/1 แยก 27 Phra Khanong Tai, Phra Khanong", "Latitude": 13.6818502, "Longitude": 100.5998761, "Google_Rating": 0.0, "Total_Reviews": 0, "Place_ID": "ChIJH75y4B6g4jARlXX9-HgLEYE" }, "geometry": null },
{ "type": "Feature", "properties": { "fid": 202, "Name": "Nissan Charging Station", "Address": "3 Rama II Rd, Bang Mot, Khet Bang Khun Thian", "Latitude": 13.6701698, "Longitude": 100.4531729, "Google_Rating": 0.0, "Total_Reviews": 0, "Place_ID": "ChIJ2c6OY7ii4jARMowXR6knzKI" }, "geometry": null },
{ "type": "Feature", "properties": { "fid": 203, "Name": "สถานีชาร์จ EA ทุกที่", "Address": "1342 ถนนสุขสวัสดิ์ แขวงราษฏร์บูรณะ Rat Burana", "Latitude": 13.6634255, "Longitude": 100.5150021, "Google_Rating": 0.0, "Total_Reviews": 0, "Place_ID": "ChIJe16hUTyi4jARFPCYYrAUN_c" }, "geometry": null },
{ "type": "Feature", "properties": { "fid": 204, "Name": "Virta Charging Station", "Address": "69 Rama II Rd, Khwaeng Bang Mot, Khet Chom Thong", "Latitude": 13.6804966, "Longitude": 100.4694576, "Google_Rating": 0.0, "Total_Reviews": 0, "Place_ID": "ChIJ50eTc5qi4jAR_aM4N5SyP2Q" }, "geometry": null },
{ "type": "Feature", "properties": { "fid": 205, "Name": "EVAT Charging Station", "Address": "เลขที่ 224 Debaratna Rd, Khwaeng Bang Na, Khet Bang Na", "Latitude": 13.6706615, "Longitude": 100.6148623, "Google_Rating": 0.0, "Total_Reviews": 0, "Place_ID": "ChIJLSkKKAmg4jARJGFCvcLtqLE" }, "geometry": null },
{ "type": "Feature", "properties": { "fid": 206, "Name": "EA Anywhere Charging Station", "Address": "88 Debaratna Rd, Bang Na Tai, Bang Na", "Latitude": 13.671002, "Longitude": 100.6134665, "Google_Rating": 0.0, "Total_Reviews": 0, "Place_ID": "ChIJQ0i21w6g4jARE1HGkXEMPjo" }, "geometry": null },
{ "type": "Feature", "properties": { "fid": 207, "Name": "ReverSharger Charging Station", "Address": "วัดบางน้ำผึ้งนอก 28/8, Phra Pradaeng District", "Latitude": 13.6741805, "Longitude": 100.5764636, "Google_Rating": 0.0, "Total_Reviews": 0, "Place_ID": "ChIJ7VFIkzKg4jARYsNtNre23lc" }, "geometry": null },
{ "type": "Feature", "properties": { "fid": 208, "Name": "Porsche Destination Charging", "Address": "28, 8 Wat Bang Nam Phueng Alley, Bang Nam Phueng, Amphoe Phra Pradaeng", "Latitude": 13.673755, "Longitude": 100.57613, "Google_Rating": 0.0, "Total_Reviews": 0, "Place_ID": "ChIJ6ZiL6TKg4jARiJtdVagYPqs" }, "geometry": null },
{ "type": "Feature", "properties": { "fid": 209, "Name": "Noodoe EV Charging Station", "Address": "Bang Na Tai, Bang Na", "Latitude": 13.6744704, "Longitude": 100.595478, "Google_Rating": 0.0, "Total_Reviews": 0, "Place_ID": "ChIJB6xBND2g4jARhhdSMXakMFw" }, "geometry": null },
{ "type": "Feature", "properties": { "fid": 210, "Name": "Virta Global Charging Station", "Address": "1 Ta Say Alley, Samrong, Amphoe Phra Pradaeng", "Latitude": 13.6590453, "Longitude": 100.5744484, "Google_Rating": 0.0, "Total_Reviews": 0, "Place_ID": "ChIJk5gArbSh4jARvwaOrOdairM" }, "geometry": null },
{ "type": "Feature", "properties": { "fid": 211, "Name": "EA Anywhere Charging Station", "Address": "59 บางหญ้าแพรก หมู่ที่ 2 Phuchao Saming Phray, Bang Ya Phraek, Phra Pradaeng District", "Latitude": 13.6555396, "Longitude": 100.5482713, "Google_Rating": 0.0, "Total_Reviews": 0, "Place_ID": "ChIJlTGEE5eh4jARivkgy1I32d0" }, "geometry": null },
{ "type": "Feature", "properties": { "fid": 212, "Name": "EA Anywhere Charging Station", "Address": "1240 Rama III Soi 57, ช่องนนทรี ยานนาวา", "Latitude": 13.67946, "Longitude": 100.5475466, "Google_Rating": 0.0, "Total_Reviews": 0, "Place_ID": "ChIJ306AYeah4jARFCEbFB-cSc4" }, "geometry": null },
{ "type": "Feature", "properties": { "fid": 213, "Name": "ชาร์จรถไฟฟ้า ประชาอุทิศ", "Address": "94 Pracha Uthit Rd, Rat Burana", "Latitude": 13.6557389, "Longitude": 100.4989478, "Google_Rating": 0.0, "Total_Reviews": 0, "Place_ID": "ChIJp8vZNQCj4jAR7aRIVOvLYU4" }, "geometry": null },
{ "type": "Feature", "properties": { "fid": 214, "Name": "Altervim Charging Station", "Address": "538 Bang Pakok, Rat Burana", "Latitude": 13.67701, "Longitude": 100.50105, "Google_Rating": 0.0, "Total_Reviews": 0, "Place_ID": "ChIJqa17pWej4jARUEfDOOrP68o" }, "geometry": null },
{ "type": "Feature", "properties": { "fid": 215, "Name": "Virta Charging Station", "Address": "99 Sukhumvit Rd, Thepharak, Mueang Samut Prakan District", "Latitude": 13.638564, "Longitude": 100.593624, "Google_Rating": 0.0, "Total_Reviews": 0, "Place_ID": "ChIJyR8rpfWg4jAR5DW2SwHdYz8" }, "geometry": null },
{ "type": "Feature", "properties": { "fid": 216, "Name": "ReverSharger Charging Station", "Address": "JJPM+X53, Srinagarindra Rd, Tambon Sam Rong Nua, Amphoe Mueang Samut Prakan", "Latitude": 13.6373794, "Longitude": 100.632927, "Google_Rating": 0.0, "Total_Reviews": 0, "Place_ID": "ChIJ0XlyuHdfHTERibjUobXMgyc" }, "geometry": null },
{ "type": "Feature", "properties": { "fid": 217, "Name": "Spark EV Charging Station", "Address": "Bang Na-Trat Frontage Rd, Tambon Bang Bo, Bang Bo District", "Latitude": 13.5867921, "Longitude": 100.840486, "Google_Rating": 0.0, "Total_Reviews": 0, "Place_ID": "ChIJt_CXpCJDHTERqL2qIB7drIM" }, "geometry": null },
{ "type": "Feature", "properties": { "fid": 218, "Name": "ReverSharger Charging Station", "Address": "HRQH+XR8, Debaratna Rd, Tambon Bang Sao Thong, Bang Sao Thong District", "Latitude": 13.5899245, "Longitude": 100.8295846, "Google_Rating": 0.0, "Total_Reviews": 0, "Place_ID": "ChIJHx2n9GNDHTER03w6btFM_Vc" }, "geometry": null },
{ "type": "Feature", "properties": { "fid": 219, "Name": "EA Anywhere Charging Station", "Address": "222 Moo 6 Bangna-Trad Rd. สมุทรปราการ Samut Prakan 10750 TH", "Latitude": 13.593016, "Longitude": 100.8156157, "Google_Rating": 0.0, "Total_Reviews": 0, "Place_ID": "ChIJmZ_6vFtDHTER0N3AwO7bbJ4" }, "geometry": null },
{ "type": "Feature", "properties": { "fid": 220, "Name": "SPARK Charging Station", "Address": "Bang Na-Trat Frontage Rd, Tambon Srisa Chorakhe Yai, Bang Sao Thong District", "Latitude": 13.5986356, "Longitude": 100.7955337, "Google_Rating": 0.0, "Total_Reviews": 0, "Place_ID": "ChIJY3DdsbRdHTERWTtBd2V1PSg" }, "geometry": null },
{ "type": "Feature", "properties": { "fid": 221, "Name": "ReverSharger Charging Station", "Address": "HQPV+FM4, Thepharak Rd, Tambon Bang Sao Thong, Bang Sao Thong District", "Latitude": 13.5861269, "Longitude": 100.7942176, "Google_Rating": 0.0, "Total_Reviews": 0, "Place_ID": "ChIJN8QyAFZbHTERuDcYBaywEms" }, "geometry": null },
{ "type": "Feature", "properties": { "fid": 222, "Name": "ReverSharger Charging Station", "Address": "HQXV+72M Subdistrict Sisa Chorakhe Yai, Bang Sao Thong District", "Latitude": 13.5982221, "Longitude": 100.7925337, "Google_Rating": 0.0, "Total_Reviews": 0, "Place_ID": "ChIJgRu1xLFcHTERhBQpoPLuGB8" }, "geometry": null },
{ "type": "Feature", "properties": { "fid": 223, "Name": "ReverSharger Charging Station", "Address": "84/2 Thepharak Rd, Tambon Bang Pla, Bang Sao Thong District", "Latitude": 13.5924026, "Longitude": 100.7708129, "Google_Rating": 0.0, "Total_Reviews": 0, "Place_ID": "ChIJ-a8CD5xcHTERtIDHaRPQ2Pk" }, "geometry": null },
{ "type": "Feature", "properties": { "fid": 224, "Name": "EGAT Charging Station", "Address": "HQH7+624, Bang Pla, Amphoe Bang Phli", "Latitude": 13.5781118, "Longitude": 100.7626409, "Google_Rating": 0.0, "Total_Reviews": 0, "Place_ID": "ChIJa0G6RHpbHTERVSofzNAC-rQ" }, "geometry": null },
{ "type": "Feature", "properties": { "fid": 225, "Name": "Gentari Charging Station", "Address": "ชั้น 1 Zone 1E ลานจอดรถ Tambon Pak Nam, Amphoe Mueang Samut Prakan", "Latitude": 13.5843574, "Longitude": 100.6071982, "Google_Rating": 0.0, "Total_Reviews": 0, "Place_ID": "ChIJ6S7PwU-n4jARRDllDelywSg" }, "geometry": null },
{ "type": "Feature", "properties": { "fid": 226, "Name": "ReverSharger Charging Station", "Address": "358 358 Mueang Samut Prakan District", "Latitude": 13.5962353, "Longitude": 100.6039668, "Google_Rating": 0.0, "Total_Reviews": 0, "Place_ID": "ChIJwV35bLOg4jARbM37iTZmpNI" }, "geometry": null },
{ "type": "Feature", "properties": { "fid": 227, "Name": "EVolt Charging Station", "Address": "2 Sukhumvit Soi 37, Tambon Pak Nam, Amphoe Mueang Samut Prakan", "Latitude": 13.596962, "Longitude": 100.6065574, "Google_Rating": 0.0, "Total_Reviews": 0, "Place_ID": "ChIJiYGM9rKg4jARPQulGVSRuNE" }, "geometry": null },
{ "type": "Feature", "properties": { "fid": 228, "Name": "Evolt Charging Station", "Address": "498/1 Sukhumvit Rd, Tambon Pak Nam, Mueang Samut Prakan District", "Latitude": 13.5848797, "Longitude": 100.6074397, "Google_Rating": 0.0, "Total_Reviews": 0, "Place_ID": "ChIJYS_PwU-n4jARnbpAc6JDp-c" }, "geometry": null },
{ "type": "Feature", "properties": { "fid": 229, "Name": "Evolt Charging Station", "Address": "ด้านหน้าออฟฟิศ สมุทรปราการ, ลานจอดรถ, Tambon Pak Nam, Amphoe Mueang Samut Prakan", "Latitude": 13.5956488, "Longitude": 100.6066034, "Google_Rating": 0.0, "Total_Reviews": 0, "Place_ID": "ChIJk0TKxrKg4jAR1JH60LIA3Q4" }, "geometry": null },
{ "type": "Feature", "properties": { "fid": 230, "Name": "MG Super Charge Charging Station", "Address": "HJW3+QM8, Sukhumvit Rd, Tambon Pak Nam, Amphoe Mueang Samut Prakan", "Latitude": 13.5968952, "Longitude": 100.604195, "Google_Rating": 0.0, "Total_Reviews": 0, "Place_ID": "ChIJ2eypDLOg4jAR0d75ljWtylY" }, "geometry": null },
{ "type": "Feature", "properties": { "fid": 231, "Name": "EA Anywhere Charging Station", "Address": "JFCQ+CC9 ตลาด สุขรุ่งเรือง มาร์เก็ต Khwaeng Thung Khru, Khet Thung Khru", "Latitude": 13.6210385, "Longitude": 100.4886227, "Google_Rating": 0.0, "Total_Reviews": 0, "Place_ID": "ChIJ82qUaZ-j4jAR0CO8ZPIOlqs" }, "geometry": null },
{ "type": "Feature", "properties": { "fid": 232, "Name": "EA Anywhere Charging Station", "Address": "HJ44+G9P, Bang Pu, Subdistrict Municipality", "Latitude": 13.5563333, "Longitude": 100.6059489, "Google_Rating": 0.0, "Total_Reviews": 0, "Place_ID": "ChIJIWB-5HCn4jAR9zoKBZCrx5w" }, "geometry": null },
{ "type": "Feature", "properties": { "fid": 233, "Name": "EA Anywhere Charging Station", "Address": "เทศบาล 49 หมู่ 2 ซอย เทศบาลบางปู 72", "Latitude": 13.5446968, "Longitude": 100.6178169, "Google_Rating": 0.0, "Total_Reviews": 0, "Place_ID": "ChIJbySV8YCn4jARyH5mbkcKZH8" }, "geometry": null },
{ "type": "Feature", "properties": { "fid": 234, "Name": "MG Super Charge Charging Station", "Address": "HJ65+XXX, Sukhumvit Rd, Bang Pu, Subdistrict", "Latitude": 13.5624797, "Longitude": 100.6099815, "Google_Rating": 0.0, "Total_Reviews": 0, "Place_ID": "ChIJdc_sCmWn4jARnh5XAEUEkBU" }, "geometry": null },
{ "type": "Feature", "properties": { "fid": 235, "Name": "Altervim Charging Station", "Address": "Altervim Super Charge สาขา โลตัส สมุทรปราการ 156/6 Sai Luat Rd, Pak Nam, Mueang Samut Prakan District", "Latitude": 13.5875971, "Longitude": 100.5978941, "Google_Rating": 0.0, "Total_Reviews": 0, "Place_ID": "ChIJlWxZrRen4jARiqXl76koItc" }, "geometry": null },
{ "type": "Feature", "properties": { "fid": 236, "Name": "EVAT Charging Station", "Address": "999/999 6 รักษ์พันธ์ดี แพรกษา Phraek Sa Subdistrict Mueang Samut Prakan District", "Latitude": 13.5708168, "Longitude": 100.6540425, "Google_Rating": 0.0, "Total_Reviews": 0, "Place_ID": "ChIJaV8wTt1YHTERwp_Yo19DsSs" }, "geometry": null },
{ "type": "Feature", "properties": { "fid": 237, "Name": "MG Super Charge Charging Station", "Address": "HHVC+9RX, Suk Sawat Rd, Nai Khlong Bang Pla Kot, Subdistrict", "Latitude": 13.593477, "Longitude": 100.5720985, "Google_Rating": 0.0, "Total_Reviews": 0, "Place_ID": "ChIJ19SbA9Wm4jARY5eFy3DkNP0" }, "geometry": null },
{ "type": "Feature", "properties": { "fid": 238, "Name": "PTT Charging Station", "Address": "HHV9+3JJ, Nai Khlong Bang Pla Kot, Amphoe Phra Samut Chedi", "Latitude": 13.5927088, "Longitude": 100.5690295, "Google_Rating": 0.0, "Total_Reviews": 0, "Place_ID": "ChIJ6V5UgNOm4jARiEikSY9QoBQ" }, "geometry": null },
{ "type": "Feature", "properties": { "fid": 239, "Name": "EGAT Charging Station", "Address": "131 Soi Sapsombun, Nai Khlong Bang Pla Kot, Amphoe Phra Samut Chedi", "Latitude": 13.591909, "Longitude": 100.536614, "Google_Rating": 0.0, "Total_Reviews": 0, "Place_ID": "ChIJKRFRH6ym4jARpHQI1TwSXZQ" }, "geometry": null },
{ "type": "Feature", "properties": { "fid": 240, "Name": "EA Anywhere Charging Station", "Address": "HR98+PWF, Thepharak Rd, Tambon Bang Sao Thong, Bang Sao Thong District", "Latitude": 13.5693245, "Longitude": 100.8173123, "Google_Rating": 0.0, "Total_Reviews": 0, "Place_ID": "ChIJpfJrDbxEHTERyTzZduganHA" }, "geometry": null },
{ "type": "Feature", "properties": { "fid": 241, "Name": "Gentari Charging Station", "Address": "HQ52+5Q2 ถนนคลองส่งน้ำสุวรรณภูมิ Bang Pla, Amphoe Bang Phli", "Latitude": 13.5578803, "Longitude": 100.7518816, "Google_Rating": 0.0, "Total_Reviews": 0, "Place_ID": "ChIJy7kH4aZbHTER6UwvNAuPySM" }, "geometry": null },
{ "type": "Feature", "properties": { "fid": 242, "Name": "EA Anywhere Charging Station", "Address": "JGG4+X27 ปั้มน้ำมัน ประชาอุทิศ ปิโตรเลี่ยม Pracha Uthit Rd, Khwaeng Thung Khru, Khet Thung Khru", "Latitude": 13.6274174, "Longitude": 100.5050593, "Google_Rating": 0.0, "Total_Reviews": 0, "Place_ID": "ChIJd15Ozbij4jARYlTul0v1JR8" }, "geometry": null },
{ "type": "Feature", "properties": { "fid": 243, "Name": "PTT Charging Station", "Address": "JFCR+9X4 PTT Station สาขา Thung Khru", "Latitude": 13.6208955, "Longitude": 100.4924568, "Google_Rating": 0.0, "Total_Reviews": 0, "Place_ID": "ChIJFQNt7Zij4jARetrfjpFPqps" }, "geometry": null },
{ "type": "Feature", "properties": { "fid": 244, "Name": "HAUP Charging Station", "Address": "KMUTT Khwaeng Bang Mot, Khet Thung Khru", "Latitude": 13.6514885, "Longitude": 100.4954613, "Google_Rating": 0.0, "Total_Reviews": 0, "Place_ID": "ChIJl0iGGU6i4jAROV-WpxNAkZw" }, "geometry": null },
{ "type": "Feature", "properties": { "fid": 245, "Name": "EA Anywhere Charging Station", "Address": "44 GardenPlace Phuttha Bucha 44 Alley", "Latitude": 13.6484515, "Longitude": 100.4879566, "Google_Rating": 0.0, "Total_Reviews": 0, "Place_ID": "ChIJiybOVlSi4jARtY52FzvNFzM" }, "geometry": null },
{ "type": "Feature", "properties": { "fid": 246, "Name": "EA Anywhere Charging Station", "Address": "51/2 Phutthabucha 36 Alley, Bang Mot, Thung Khru", "Latitude": 13.6437017, "Longitude": 100.4791391, "Google_Rating": 0.0, "Total_Reviews": 0, "Place_ID": "ChIJhzQ3igGj4jAR8vD1m1sIbBs" }, "geometry": null },
{ "type": "Feature", "properties": { "fid": 247, "Name": "สถานีชาร์จ EA Anywhere", "Address": "JFRH+76H พงษ์ตระกูล เพอเฟ็ค แลนด์ Phutthabucha 36 Alley, Khwaeng Bang Mot, Khet Thung Khru", "Latitude": 13.6406784, "Longitude": 100.4781127, "Google_Rating": 0.0, "Total_Reviews": 0, "Place_ID": "ChIJveyx7wOj4jAR9VbVVjxHZvg" }, "geometry": null },
{ "type": "Feature", "properties": { "fid": 248, "Name": "EA Anywhere Charging Station", "Address": "พงษ์ตระกูล เพอเฟ็ค แลนด์ 39 ซอย พุทธบูชา 2 Khwaeng Bang Mot, Khet Thung Khru", "Latitude": 13.6504144, "Longitude": 100.4819419, "Google_Rating": 0.0, "Total_Reviews": 0, "Place_ID": "ChIJW7FEKP-i4jARXFXXydhBW1o" }, "geometry": null },
{ "type": "Feature", "properties": { "fid": 249, "Name": "ReverSharger Charging Station", "Address": "489/1 Pracha Uthit Rd, Khwaeng Thung Khru, Khet Thung Khru", "Latitude": 13.640512, "Longitude": 100.5002622, "Google_Rating": 0.0, "Total_Reviews": 0, "Place_ID": "ChIJ7_H-lLOj4jARgUF-xC7JTBk" }, "geometry": null },
{ "type": "Feature", "properties": { "fid": 250, "Name": "EA Anywhere Charging Station", "Address": "JJXR+W47 บิ๊กซี Srinagarindra Rd, Tambon Sam Rong Nua, Mueang Samut Prakan District", "Latitude": 13.6497968, "Longitude": 100.6403073, "Google_Rating": 0.0, "Total_Reviews": 0, "Place_ID": "ChIJ4wccJ5hfHTER13jvsUBy4LA" }, "geometry": null },
{ "type": "Feature", "properties": { "fid": 251, "Name": "สถานีชาร์จรถยนต์ไฟฟ้า", "Address": "JJM8+6W6, Thepharak, Amphoe Mueang Samut Prakan", "Latitude": 13.6330432, "Longitude": 100.6172661, "Google_Rating": 0.0, "Total_Reviews": 0, "Place_ID": "ChIJa87OMYKg4jAREITGZEs3py0" }, "geometry": null },
{ "type": "Feature", "properties": { "fid": 252, "Name": "NISSAN Charging Station", "Address": "99 เทพารักษ์ 99 Thepharak Rd, Tambon Thepharak, Amphoe Mueang Samut Prakan", "Latitude": 13.6292182, "Longitude": 100.6243734, "Google_Rating": 0.0, "Total_Reviews": 0, "Place_ID": "ChIJqXb8lnxfHTERfKmDU46fY80" }, "geometry": null },
{ "type": "Feature", "properties": { "fid": 253, "Name": "MG Super Charge Charging Station", "Address": "72 Bang Muang, Subdistrict Municipality", "Latitude": 13.6317286, "Longitude": 100.6186997, "Google_Rating": 0.0, "Total_Reviews": 0, "Place_ID": "ChIJu1L7b4Kg4jAREaEhRxda0Cs" }, "geometry": null },
{ "type": "Feature", "properties": { "fid": 254, "Name": "ReverSharger Charging Station", "Address": "18 Bearing 5 Aly, Tambon Sam Rong Nua, Amphoe Mueang Samut Prakan", "Latitude": 13.6533459, "Longitude": 100.6093739, "Google_Rating": 0.0, "Total_Reviews": 0, "Place_ID": "ChIJ0X5sOnCg4jAR8OiYWxTlsi8" }, "geometry": null },
{ "type": "Feature", "properties": { "fid": 255, "Name": "ReverSharger Charging Station", "Address": "JJJ9+PF4, Soi Thewa 4, Tambon Thepharak, Mueang Samut Prakan District", "Latitude": 13.6317575, "Longitude": 100.6187108, "Google_Rating": 0.0, "Total_Reviews": 0, "Place_ID": "ChIJOakab4Kg4jARy2ZIzWX-KhA" }, "geometry": null },
{ "type": "Feature", "properties": { "fid": 256, "Name": "ReverSharger Charging Station", "Address": "JJHF+QJ8 เทพารักษ์ Theparak Subdistrict Mueang Samut", "Latitude": 13.6294145, "Longitude": 100.6240871, "Google_Rating": 0.0, "Total_Reviews": 0, "Place_ID": "ChIJ59eslXxfHTERIL1nUhhJU8s" }, "geometry": null },
{ "type": "Feature", "properties": { "fid": 257, "Name": "Gentari Charging Station", "Address": "MH3M+JJ7 test, Samrong, Amphoe Phra Pradaeng", "Latitude": 13.6541156, "Longitude": 100.5840817, "Google_Rating": 0.0, "Total_Reviews": 0, "Place_ID": "ChIJ82Y5uU-g4jARB34Zi9og3nA" }, "geometry": null },
{ "type": "Feature", "properties": { "fid": 258, "Name": "WECHARGE Charging Station", "Address": "2/15 หมู่ที่ 8 Phra Pradaeng District", "Latitude": 13.6443909, "Longitude": 100.5861235, "Google_Rating": 0.0, "Total_Reviews": 0, "Place_ID": "ChIJ-zhGEcah4jARx1Fvpj6353o" }, "geometry": null },
{ "type": "Feature", "properties": { "fid": 259, "Name": "ReverSharger Charging Station", "Address": "JHPR+3G3, Sukhumvit 117, Tambon Bang Muang Mai, Amphoe Mueang Samut Prakan", "Latitude": 13.6351402, "Longitude": 100.5913004, "Google_Rating": 0.0, "Total_Reviews": 0, "Place_ID": "ChIJAVeuq_ag4jARHeiDVOZX_9s" }, "geometry": null },
{ "type": "Feature", "properties": { "fid": 260, "Name": "MEA EV Charging Station", "Address": "126 Pracha Uthit Rd, Bang Mot, Thung Khru", "Latitude": 13.6515236, "Longitude": 100.4953536, "Google_Rating": 0.0, "Total_Reviews": 0, "Place_ID": "ChIJCYiB5lGi4jARKEv3G5l63bs" }, "geometry": null },
{ "type": "Feature", "properties": { "fid": 261, "Name": "EA Anywhere Charging Station", "Address": "367 ถนน พุทธบูชา Bang Mot, Thung Khru", "Latitude": 13.6507259, "Longitude": 100.4886473, "Google_Rating": 0.0, "Total_Reviews": 0, "Place_ID": "ChIJETUSnlai4jARpaxHT7UKSLE" }, "geometry": null },
{ "type": "Feature", "properties": { "fid": 262, "Name": "Charge+ Charging Station", "Address": "MF2R+4P3, Pracha Uthit 34 Alley, Khwaeng Bang Mot, Khet Thung Khru", "Latitude": 13.6502503, "Longitude": 100.4918079, "Google_Rating": 0.0, "Total_Reviews": 0, "Place_ID": "ChIJVdp-3lOi4jARWo0zpW0-VX0" }, "geometry": null },
{ "type": "Feature", "properties": { "fid": 263, "Name": "Evolt Charging Station", "Address": "126 Pracha Uthit Rd., Bang Mod, Thung Khru Bang Mot, Subdistrict", "Latitude": 13.651966, "Longitude": 100.4928448, "Google_Rating": 0.0, "Total_Reviews": 0, "Place_ID": "ChIJ6VnSdFGi4jAR4EadFFvus2o" }, "geometry": null },
{ "type": "Feature", "properties": { "fid": 264, "Name": "MG Super Charge Charging Station", "Address": "222 Cascade Bangna, Tambon Bang Chalong, Bang Phli District", "Latitude": 13.6210761, "Longitude": 100.7351322, "Google_Rating": 0.0, "Total_Reviews": 0, "Place_ID": "ChIJv_krs0dcHTEROwEGk3mcAgk" }, "geometry": null },
{ "type": "Feature", "properties": { "fid": 265, "Name": "ReverSharger Charging Station", "Address": "JPHC+74P, Bang Na-Trat Frontage Rd, Tambon Rachathewa, Bang Phli District", "Latitude": 13.6282115, "Longitude": 100.7203411, "Google_Rating": 0.0, "Total_Reviews": 0, "Place_ID": "ChIJN6l3Gi5cHTERa0K5RVG9hF4" }, "geometry": null },
{ "type": "Feature", "properties": { "fid": 266, "Name": "Charge X Co., LTD", "Address": "99, 498, Bang Phli Yai, Bang Phli District", "Latitude": 13.6188341, "Longitude": 100.6964407, "Google_Rating": 0.0, "Total_Reviews": 0, "Place_ID": "ChIJoy7RuchfHTERJXkdMM-iY50" }, "geometry": null },
{ "type": "Feature", "properties": { "fid": 267, "Name": "ReverSharger Charging Station", "Address": "JP93+XXX Khlong Bang Phli Yai, Bang Phli District", "Latitude": 13.6199802, "Longitude": 100.7049745, "Google_Rating": 0.0, "Total_Reviews": 0, "Place_ID": "ChIJ91ziEpxeHTERtPPbEegGEOk" }, "geometry": null },
{ "type": "Feature", "properties": { "fid": 268, "Name": "EA Anywhere Charging Station", "Address": "JP24+XXF บิ๊กซี Tambon Bang Phli Yai, Bang Phli District", "Latitude": 13.6024429, "Longitude": 100.7074207, "Google_Rating": 0.0, "Total_Reviews": 0, "Place_ID": "ChIJjWfhyadeHTERbdtb_OiQJ68" }, "geometry": null },
{ "type": "Feature", "properties": { "fid": 269, "Name": "MG Super Charge Charging Station", "Address": "6 3, Bang Phli Yai, Subdistrict", "Latitude": 13.611028, "Longitude": 100.6705345, "Google_Rating": 0.0, "Total_Reviews": 0, "Place_ID": "ChIJpcwGKdxeHTERdEYIikR9KSo" }, "geometry": null },
{ "type": "Feature", "properties": { "fid": 270, "Name": "EV Station PluZ Charging Station", "Address": "Nam Daeng 25 Sridan 18 Alley, Bang Kaeo, Bang Phli District", "Latitude": 13.6248549, "Longitude": 100.6405886, "Google_Rating": 0.0, "Total_Reviews": 0, "Place_ID": "ChIJjXkbGW1fHTERrF49YFrnWwA" }, "geometry": null },
{ "type": "Feature", "properties": { "fid": 271, "Name": "EA Anywhere Charging Station", "Address": "39/10 หมู่ 11, Bang Kaeo, Bang Phli District", "Latitude": 13.6208706, "Longitude": 100.6423318, "Google_Rating": 0.0, "Total_Reviews": 0, "Place_ID": "ChIJdaHvS8FfHTERyNhYsXsJw7s" }, "geometry": null },
{ "type": "Feature", "properties": { "fid": 272, "Name": "EVAT Charging Station", "Address": "เลขที่ 888/8 หมู่ที่ 5 แขวงบางเมือง อำเภอเมืองสมุทรปราการ Bang Muang, Subdistrict", "Latitude": 13.6196787, "Longitude": 100.6234354, "Google_Rating": 0.0, "Total_Reviews": 0, "Place_ID": "ChIJd6WSG2FfHTERT5ib1ocxt_w" }, "geometry": null },
{ "type": "Feature", "properties": { "fid": 273, "Name": "EleXA Charging Station", "Address": "เลขที่ 888/8 หมู่ที่ 5 แขวงบางเมือง Bang Muang, Subdistrict", "Latitude": 13.6196787, "Longitude": 100.6234355, "Google_Rating": 0.0, "Total_Reviews": 0, "Place_ID": "ChIJf6WSG2FfHTERpGCTFMC3Ev0" }, "geometry": null },
{ "type": "Feature", "properties": { "fid": 274, "Name": "ReverSharger Charging Station", "Address": "JH4W+P7Q Tambon Paknam Mueang Samut Prakan District", "Latitude": 13.6068409, "Longitude": 100.5957438, "Google_Rating": 0.0, "Total_Reviews": 0, "Place_ID": "ChIJd7ZY3ceg4jARF3jLp0uctsk" }, "geometry": null },
{ "type": "Feature", "properties": { "fid": 275, "Name": "EA Anywhere Charging Station", "Address": "JH8V+72V, Sukhumvit Rd, Tambon Pak Nam, Amphoe Mueang Samut Prakan", "Latitude": 13.6157428, "Longitude": 100.5925425, "Google_Rating": 0.0, "Total_Reviews": 0, "Place_ID": "ChIJeSLSkMGg4jARR_S5R2pVOIo" }, "geometry": null },
{ "type": "Feature", "properties": { "fid": 276, "Name": "MEA EV Charging Station", "Address": "JGCR+9RC, Suk Sawat Rd, Tambon Bang Chak, Phra Pradaeng District", "Latitude": 13.6209309, "Longitude": 100.5420227, "Google_Rating": 0.0, "Total_Reviews": 0, "Place_ID": "ChIJl1iXFmih4jARXW2SSvFtSjc" }, "geometry": null },
{ "type": "Feature", "properties": { "fid": 277, "Name": "MG Super Charge Charging Station", "Address": "4 43, Bang Chalong, Subdistrict", "Latitude": 13.617978, "Longitude": 100.7454795, "Google_Rating": 0.0, "Total_Reviews": 0, "Place_ID": "ChIJR6Y8bFtcHTERvYJnpelKsxM" }, "geometry": null },
{ "type": "Feature", "properties": { "fid": 278, "Name": "EA Anywhere Charging Station", "Address": "205 Bang Bo, Subdistrict", "Latitude": 13.6088979, "Longitude": 100.8473655, "Google_Rating": 0.0, "Total_Reviews": 0, "Place_ID": "ChIJ95gFUKBDHTERBtSjFMjNs1I" }, "geometry": null },
{ "type": "Feature", "properties": { "fid": 279, "Name": "Sharge Charging Station", "Address": "1 Bunchuphut,Samut Prakan 10560, Bang Bo", "Latitude": 13.6036275, "Longitude": 100.8469406, "Google_Rating": 0.0, "Total_Reviews": 0, "Place_ID": "ChIJQ8VzTJ5DHTERKdqUAj7GQRw" }, "geometry": null },
{ "type": "Feature", "properties": { "fid": 280, "Name": "EA Anywhere Charging Station", "Address": "335 9 บางนาตราด กม Bang Chalong, Bang Phli District", "Latitude": 13.6053334, "Longitude": 100.7695566, "Google_Rating": 0.0, "Total_Reviews": 0, "Place_ID": "ChIJQfcPz5NcHTERRoMVQ--xJFM" }, "geometry": null },
{ "type": "Feature", "properties": { "fid": 281, "Name": "G-charge Charging Station", "Address": "888 บางนาตราด กม Racha Thewa, Bang Phli District", "Latitude": 13.6173011, "Longitude": 100.7623742, "Google_Rating": 0.0, "Total_Reviews": 0, "Place_ID": "ChIJORBlIPVdHTERb7LlrH7X6-8" }, "geometry": null },
{ "type": "Feature", "properties": { "fid": 282, "Name": "ReverSharger Charging Station", "Address": "Parallel Way Bangna-Trad R 12/6 Bang Chalong, Bang Phli District", "Latitude": 13.6182259, "Longitude": 100.7456545, "Google_Rating": 0.0, "Total_Reviews": 0, "Place_ID": "ChIJHzpEbVtcHTER4oq3UwtBsE0" }, "geometry": null },
{ "type": "Feature", "properties": { "fid": 283, "Name": "EleXA Charging Station", "Address": "PG58+M5Q, Chan 40/1 Alley, Khwaeng Wat Phraya Krai, Khet Bang Kho Laem", "Latitude": 13.7092183, "Longitude": 100.5154815, "Google_Rating": 0.0, "Total_Reviews": 0, "Place_ID": "ChIJy1pLB7mY4jAR9BZc08s_c38" }, "geometry": null },
{ "type": "Feature", "properties": { "fid": 284, "Name": "MEA EV Charging Station", "Address": "102 Na Ranong Rd, Khwaeng Khlong Toei, Khlong Toei", "Latitude": 13.7158659, "Longitude": 100.5586597, "Google_Rating": 0.0, "Total_Reviews": 0, "Place_ID": "ChIJoTRm5BOf4jAREg4DrwcDzyg" }, "geometry": null },
{ "type": "Feature", "properties": { "fid": 285, "Name": "Porsche Destination Charging", "Address": "27 Thanon Nang Linchi, Khwaeng Chong Nonsi, Khet Yan Nawa", "Latitude": 13.7099834, "Longitude": 100.5432344, "Google_Rating": 0.0, "Total_Reviews": 0, "Place_ID": "ChIJsfVvmUef4jARz9JvECCcg0E" }, "geometry": null },
{ "type": "Feature", "properties": { "fid": 286, "Name": "Charge+ Charging Station", "Address": "PG8J+JWF, Naradhiwas Rajanagarindra Rd, Khwaeng Yan Nawa, Sathon", "Latitude": 13.7165214, "Longitude": 100.5323077, "Google_Rating": 0.0, "Total_Reviews": 0, "Place_ID": "ChIJLRBSiDSf4jARvewTi3GO1Sc" }, "geometry": null },
{ "type": "Feature", "properties": { "fid": 287, "Name": "Charge+ Charging Station", "Address": "PG5V+X7G, Nang Linchi Rd, Khwaeng Chong Nonsi, Yan Nawa", "Latitude": 13.7099494, "Longitude": 100.5432018, "Google_Rating": 0.0, "Total_Reviews": 0, "Place_ID": "ChIJgRtZmEef4jARdq1qjNV4BhE" }, "geometry": null },
{ "type": "Feature", "properties": { "fid": 288, "Name": "Spark Charging Station", "Address": "Khlong Dan, Bang Bo District", "Latitude": 13.50994, "Longitude": 100.8113, "Google_Rating": 0.0, "Total_Reviews": 0, "Place_ID": "ChIJG3Zb_6BFHTERwe1FA17RvYU" }, "geometry": null },
{ "type": "Feature", "properties": { "fid": 289, "Name": "Sharge Charging Station", "Address": "79 Thanon Nang Linchi, Khwaeng Chong Nonsi, Yan Nawa", "Latitude": 13.7101682, "Longitude": 100.5424245, "Google_Rating": 0.0, "Total_Reviews": 0, "Place_ID": "ChIJgQSGlEef4jARIaHNcg_u9Bk" }, "geometry": null },
{ "type": "Feature", "properties": { "fid": 290, "Name": "EA Anywhere Charging Station", "Address": "PH6P+XPJ, Rama IV Rd, Khwaeng Phra Khanong, Khlong Toei", "Latitude": 13.712633, "Longitude": 100.5867746, "Google_Rating": 0.0, "Total_Reviews": 0, "Place_ID": "ChIJi8gJ2byf4jAR36qvx5T9P08" }, "geometry": null },
{ "type": "Feature", "properties": { "fid": 291, "Name": "ReverSharger Charging Station", "Address": "PJ73+QC9, On Nut 1 Aly, Phra Khanong Nuea, Watthana", "Latitude": 13.7144105, "Longitude": 100.6035976, "Google_Rating": 0.0, "Total_Reviews": 0, "Place_ID": "ChIJ1U0lCMSf4jAR2uAkRpJaXlI" }, "geometry": null },
{ "type": "Feature", "properties": { "fid": 292, "Name": "Electric Vehicle Charging Station", "Address": "PH8C+QH8, Khlong Tan, Khlong Toei", "Latitude": 13.7169242, "Longitude": 100.5714395, "Google_Rating": 0.0, "Total_Reviews": 0, "Place_ID": "ChIJvX7LQT6f4jARRJpmR3L22zM" }, "geometry": null },
{ "type": "Feature", "properties": { "fid": 293, "Name": "MEA EV Charging Station", "Address": "2078 On Nut Rd, On Nut, Suan Luang", "Latitude": 13.7135648, "Longitude": 100.6471935, "Google_Rating": 0.0, "Total_Reviews": 0, "Place_ID": "ChIJ39Nfo0ZgHTERGy92GLJwwAg" }, "geometry": null },
{ "type": "Feature", "properties": { "fid": 294, "Name": "Evolt Charging Station", "Address": "90 On Nut Rd, Khwaeng Prawet, Khet Prawet", "Latitude": 13.7176887, "Longitude": 100.7068939, "Google_Rating": 0.0, "Total_Reviews": 0, "Place_ID": "ChIJffsWWNJgHTERXt8hTdrdnOo" }, "geometry": null },
{ "type": "Feature", "properties": { "fid": 295, "Name": "Evolt Charging Station", "Address": "257 Charoen Nakorn Rd. Samrae, Thonburi, Bangkok 10600", "Latitude": 13.7083035, "Longitude": 100.5868036, "Google_Rating": 0.0, "Total_Reviews": 0, "Place_ID": "ChIJae4n7Jef4jARhmLA_WgDliY" }, "geometry": null },
{ "type": "Feature", "properties": { "fid": 296, "Name": "EA Anywhere Charging Station", "Address": "อาคารบี (สกาย วอร์ค อาคารชุด เลอรัก คอนโดมิเนียม Khwaeng Phra Khanong Nuea, Watthana", "Latitude": 13.7139339, "Longitude": 100.5933924, "Google_Rating": 0.0, "Total_Reviews": 0, "Place_ID": "ChIJsyKyxb6f4jARZVoebZlwhFw" }, "geometry": null },
{ "type": "Feature", "properties": { "fid": 297, "Name": "EleXA Charging Station", "Address": "297 Yen Akat 2 Alley, Chong Nonsi, Yan Nawa", "Latitude": 13.7123935, "Longitude": 100.5493451, "Google_Rating": 0.0, "Total_Reviews": 0, "Place_ID": "ChIJ8eX5nz-f4jARdL9x3HAiMjM" }, "geometry": null },
{ "type": "Feature", "properties": { "fid": 298, "Name": "EVAT Charging Station", "Address": "297 Yen Akat 2 Alley, Chong Nonsi, Yan Nawa", "Latitude": 13.7123934, "Longitude": 100.5493451, "Google_Rating": 0.0, "Total_Reviews": 0, "Place_ID": "ChIJ9eX5nz-f4jAR7BvfFFtIAjk" }, "geometry": null },
{ "type": "Feature", "properties": { "fid": 299, "Name": "SHARGE Charging Station", "Address": "101 ถนน สุขุมวิท 101/1 Khwaeng Bang Chak, Khet Phra Khanong", "Latitude": 13.6851522, "Longitude": 100.6113264, "Google_Rating": 0.0, "Total_Reviews": 0, "Place_ID": "ChIJF8FxfgKg4jARKwYU_-ZkgOs" }, "geometry": null },
{ "type": "Feature", "properties": { "fid": 300, "Name": "MEA Charging Station", "Address": "MHMX+WVC สุขุมวิท 66/1 แยก 8 พระโขนง Khet Phra Khanong", "Latitude": 13.6848383, "Longitude": 100.5996241, "Google_Rating": 0.0, "Total_Reviews": 0, "Place_ID": "ChIJv2fnyx-g4jARu-_R4b_zex4" }, "geometry": null },
{ "type": "Feature", "properties": { "fid": 301, "Name": "EA Anywhere Charging Station", "Address": "SCB สาขาบางจาก 2425/5 Sukhumvit Rd, Bang Chak, Phra Khanong", "Latitude": 13.69617, "Longitude": 100.605953, "Google_Rating": 0.0, "Total_Reviews": 0, "Place_ID": "ChIJVYnYM_Cf4jARv8QoyXRSs0s" }, "geometry": null },
{ "type": "Feature", "properties": { "fid": 302, "Name": "G-charge Charging Station", "Address": "2400 Sukhumvit Rd, Phra Khanong Tai, Khet Phra Khanong", "Latitude": 13.6857098, "Longitude": 100.6100911, "Google_Rating": 0.0, "Total_Reviews": 0, "Place_ID": "ChIJd3AzdPif4jARyRUJ07QZZug" }, "geometry": null },
{ "type": "Feature", "properties": { "fid": 303, "Name": "EA Anywhere Charging Station", "Address": "58 Soi Sukhumvit 54, Phra Khanong Tai, Khet Phra Khanong", "Latitude": 13.7018639, "Longitude": 100.6007057, "Google_Rating": 0.0, "Total_Reviews": 0, "Place_ID": "ChIJ2zuQaOyf4jARGfSCZOnkhp4" }, "geometry": null },
{ "type": "Feature", "properties": { "fid": 304, "Name": "Electric Vehicle Charging Station", "Address": "6645 At Narong Rd, Phra Khanong, Khlong Toei", "Latitude": 13.7018978, "Longitude": 100.5893591, "Google_Rating": 0.0, "Total_Reviews": 0, "Place_ID": "ChIJl0qT3Tef4jAREkAnZ0KrP4k" }, "geometry": null },
{ "type": "Feature", "properties": { "fid": 305, "Name": "Sharge Charging Station", "Address": "1248/4 สุขุมวิท, Khwaeng Phra Khanong, Khet Khlong Toei", "Latitude": 13.7051139, "Longitude": 100.5918941, "Google_Rating": 0.0, "Total_Reviews": 0, "Place_ID": "ChIJL3LbI5Sf4jARQfuYn6dg0cs" }, "geometry": null },
{ "type": "Feature", "properties": { "fid": 306, "Name": "Virta Charging Station", "Address": "MGQX+66X ศุภาลัย พรีมา ริวา ลานจอดรถใต้อาคาร, Khwaeng Chong Nonsi, Khet Yan Nawa", "Latitude": 13.688101, "Longitude": 100.548104, "Google_Rating": 0.0, "Total_Reviews": 0, "Place_ID": "ChIJ_-By3-Gh4jAR1d1X-Shou04" }, "geometry": null },
{ "type": "Feature", "properties": { "fid": 307, "Name": "EA Anywhere Charging Station", "Address": "MJP5+2H6, Sukhumvit 64/2, Phra Khanong Tai, Phra Khanong", "Latitude": 13.6850291, "Longitude": 100.6088779, "Google_Rating": 0.0, "Total_Reviews": 0, "Place_ID": "ChIJxytYrgKg4jARO7SrjmmptBY" }, "geometry": null },
{ "type": "Feature", "properties": { "fid": 308, "Name": "สถานีชาร์จ EA Anywhere", "Address": "352 Chaloem Phrakiat Ratchakan Thi 9 Rd, สวนหลวง Prawet", "Latitude": 13.6902224, "Longitude": 100.6706129, "Google_Rating": 0.0, "Total_Reviews": 0, "Place_ID": "ChIJ15GXn4ZgHTERTLxxNMT8Xmw" }, "geometry": null },
{ "type": "Feature", "properties": { "fid": 309, "Name": "Sharge Charging Station", "Address": "152 Surao Nong Bon Alley, Khwaeng Nong Bon, Prawet", "Latitude": 13.6948506, "Longitude": 100.6731689, "Google_Rating": 0.0, "Total_Reviews": 0, "Place_ID": "ChIJG-AteI9gHTERXhw85k435JQ" }, "geometry": null },
{ "type": "Feature", "properties": { "fid": 310, "Name": "ERGE Charging Station", "Address": "333 Srinagarindra Rd, Nong Bon, Prawet", "Latitude": 13.6729912, "Longitude": 100.6468156, "Google_Rating": 0.0, "Total_Reviews": 0, "Place_ID": "ChIJix3LDfdfHTERH4QN3IP_SBg" }, "geometry": null },
{ "type": "Feature", "properties": { "fid": 311, "Name": "Gentari Charging Station", "Address": "55 Srinagarindra Rd, Khwaeng Nong Bon, Khet Prawet", "Latitude": 13.6943822, "Longitude": 100.6488002, "Google_Rating": 0.0, "Total_Reviews": 0, "Place_ID": "ChIJP1Hf7nFgHTERVMcuOCbsVfQ" }, "geometry": null },
{ "type": "Feature", "properties": { "fid": 312, "Name": "Charge+ Charging Station", "Address": "MJWX+V25, Srinagarindra Rd, Khwaeng Nong Bon, Prawet", "Latitude": 13.6971292, "Longitude": 100.6476157, "Google_Rating": 0.0, "Total_Reviews": 0, "Place_ID": "ChIJx4wr2W1gHTERWXH75QO0i_Y" }, "geometry": null },
{ "type": "Feature", "properties": { "fid": 313, "Name": "Shell Recharge Charging Station", "Address": "PJ3W+F59, Srinagarindra Rd, Suan Luang", "Latitude": 13.7036579, "Longitude": 100.6454859, "Google_Rating": 0.0, "Total_Reviews": 0, "Place_ID": "ChIJC_7UrWtgHTERsboOB_lDsOc" }, "geometry": null },
{ "type": "Feature", "properties": { "fid": 314, "Name": "EA Anywhere Charging Station", "Address": "MJVX+M7R, Srinagarindra Rd, Khwaeng Nong Bon, Prawet", "Latitude": 13.6942443, "Longitude": 100.6481362, "Google_Rating": 0.0, "Total_Reviews": 0, "Place_ID": "ChIJwaGp9nFgHTERvBEL9KucX7c" }, "geometry": null },
{ "type": "Feature", "properties": { "fid": 315, "Name": "EA Anywhere Charging Station", "Address": "MJXW+VRG Car Loft Auto Import Khwaeng Nong Bon, Khet Prawet", "Latitude": 13.6996985, "Longitude": 100.6470813, "Google_Rating": 0.0, "Total_Reviews": 0, "Place_ID": "ChIJSX7WPGxgHTERogfil9r9EP8" }, "geometry": null },
{ "type": "Feature", "properties": { "fid": 316, "Name": "ReverSharger Charging Station", "Address": "1580 Sukhumvit Rd, Khwaeng Phra Khanong, Khet Khlong Toei", "Latitude": 13.7076117, "Longitude": 100.5997198, "Google_Rating": 0.0, "Total_Reviews": 0, "Place_ID": "ChIJp9iki-qf4jARfwVEoo3iw2M" }, "geometry": null },
{ "type": "Feature", "properties": { "fid": 317, "Name": "IONITY Charging Station", "Address": "79 Sathu Pradit Rd, Khwaeng Chong Nonsi, Khet Yan Nawa", "Latitude": 13.6974765, "Longitude": 100.5373074, "Google_Rating": 0.0, "Total_Reviews": 0, "Place_ID": "ChIJk8IiplGf4jARr27-tO9YZG8" }, "geometry": null },
{ "type": "Feature", "properties": { "fid": 318, "Name": "สถานีชาร์จ EA Anywhere", "Address": "397 Charoen Nakhon Rd, Bukkhalo, Thon Buri", "Latitude": 13.7028169, "Longitude": 100.4915846, "Google_Rating": 0.0, "Total_Reviews": 0, "Place_ID": "ChIJZYK-Qo-Y4jARgioef8s_Lyw" }, "geometry": null },
{ "type": "Feature", "properties": { "fid": 319, "Name": "สถานีชาร์จ Sharge", "Address": "888 Rama III Rd, Khwaeng Bang Khlo, Khet Bang Kho Laem", "Latitude": 13.68826, "Longitude": 100.51438, "Google_Rating": 0.0, "Total_Reviews": 0, "Place_ID": "ChIJ82mRwAmi4jAR74xjKKyx86U" }, "geometry": null },